{"type":"FeatureCollection","features":[{"type":"Feature","id":"PARKINFOOGD.2893030","geometry":{"type":"Point","coordinates":[16.39683464,48.18583146]},"geometry_name":"SHAPE","properties":{"OBJECTID":2893030,"ANL_NAME":"Ilija-Jovanovic-Park","BEZIRK":3,"FLAECHE":"1.763 m²","OEFF_ZEITEN":"0:00-24:00","SPIELEN_IM_PARK":"Nein","WASSER_IM_PARK":"Nein","HUNDE_IM_PARK":"Nein","TELEFON":"01 4000 8042","WEBLINK1":"http://www.wien.gv.at/umwelt/parks/anlagen/index.html","SE_ANNO_CAD_DATA":null}},{"type":"Feature","id":"PARKINFOOGD.2893031","geometry":{"type":"Point","coordinates":[16.39862866,48.19123467]},"geometry_name":"SHAPE","properties":{"OBJECTID":2893031,"ANL_NAME":"Waisenhauspark","BEZIRK":3,"FLAECHE":"5.270 m²","OEFF_ZEITEN":"Ballspielkäfig: Okt-März: 7:30-19:30, Apr-Sep: 7:30-20:00","SPIELEN_IM_PARK":"Ja","WASSER_IM_PARK":"Ja","HUNDE_IM_PARK":"Nein","TELEFON":"01 4000 8042","WEBLINK1":"http://www.wien.gv.at/umwelt/parks/anlagen/index.html","SE_ANNO_CAD_DATA":null}},{"type":"Feature","id":"PARKINFOOGD.2893032","geometry":{"type":"Point","coordinates":[16.3863483,48.19551787]},"geometry_name":"SHAPE","properties":{"OBJECTID":2893032,"ANL_NAME":"PA Ungargasse","BEZIRK":3,"FLAECHE":"906 m²","OEFF_ZEITEN":"0:00-24:00","SPIELEN_IM_PARK":"Nein","WASSER_IM_PARK":"Nein","HUNDE_IM_PARK":"Nein","TELEFON":"01 4000 8042","WEBLINK1":"http://www.wien.gv.at/umwelt/parks/anlagen/index.html","SE_ANNO_CAD_DATA":null}},{"type":"Feature","id":"PARKINFOOGD.2893033","geometry":{"type":"Point","coordinates":[16.40199555,48.18277287]},"geometry_name":"SHAPE","properties":{"OBJECTID":2893033,"ANL_NAME":"Friedhof St. Marx","BEZIRK":3,"FLAECHE":"57.549 m²","OEFF_ZEITEN":"Okt-März: 6:30-18:30, Apr-Sep: 6:30-20:00","SPIELEN_IM_PARK":"Nein","WASSER_IM_PARK":"Ja","HUNDE_IM_PARK":"Nein","TELEFON":"01 4000 8042","WEBLINK1":"http://www.wien.gv.at/umwelt/parks/anlagen/index.html","SE_ANNO_CAD_DATA":null}},{"type":"Feature","id":"PARKINFOOGD.2893034","geometry":{"type":"Point","coordinates":[16.38968573,48.19960671]},"geometry_name":"SHAPE","properties":{"OBJECTID":2893034,"ANL_NAME":"Haubenstock-Ramati-Park","BEZIRK":3,"FLAECHE":"2.070 m²","OEFF_ZEITEN":"0:00-24:00","SPIELEN_IM_PARK":"Nein","WASSER_IM_PARK":"Ja","HUNDE_IM_PARK":"Nein","TELEFON":"01 4000 8042","WEBLINK1":"http://www.wien.gv.at/umwelt/parks/anlagen/index.html","SE_ANNO_CAD_DATA":null}},{"type":"Feature","id":"PARKINFOOGD.2893035","geometry":{"type":"Point","coordinates":[16.38591514,48.18648082]},"geometry_name":"SHAPE","properties":{"OBJECTID":2893035,"ANL_NAME":"Schweizergarten","BEZIRK":3,"FLAECHE":"115.249 m²","OEFF_ZEITEN":"0:00-24:00","SPIELEN_IM_PARK":"Ja","WASSER_IM_PARK":"Ja","HUNDE_IM_PARK":"Ja","TELEFON":"01 4000 8042","WEBLINK1":"http://www.wien.gv.at/umwelt/parks/anlagen/index.html","SE_ANNO_CAD_DATA":null}},{"type":"Feature","id":"PARKINFOOGD.2893036","geometry":{"type":"Point","coordinates":[16.37638297,48.19831988]},"geometry_name":"SHAPE","properties":{"OBJECTID":2893036,"ANL_NAME":"PA Schwarzenbergplatz","BEZIRK":3,"FLAECHE":"14.396 m²","OEFF_ZEITEN":"0:00-24:00","SPIELEN_IM_PARK":"Nein","WASSER_IM_PARK":"Ja","HUNDE_IM_PARK":"Nein","TELEFON":"01 4000 8042","WEBLINK1":"http://www.wien.gv.at/umwelt/parks/anlagen/index.html","SE_ANNO_CAD_DATA":null}},{"type":"Feature","id":"PARKINFOOGD.2893037","geometry":{"type":"Point","coordinates":[16.39313717,48.20184258]},"geometry_name":"SHAPE","properties":{"OBJECTID":2893037,"ANL_NAME":"Rochuspark","BEZIRK":3,"FLAECHE":"3.665 m²","OEFF_ZEITEN":"0:00-24:00","SPIELEN_IM_PARK":"Ja","WASSER_IM_PARK":"Ja","HUNDE_IM_PARK":"Nein","TELEFON":"01 4000 8042","WEBLINK1":"http://www.wien.gv.at/umwelt/parks/anlagen/index.html","SE_ANNO_CAD_DATA":null}},{"type":"Feature","id":"PARKINFOOGD.2893038","geometry":{"type":"Point","coordinates":[16.38744649,48.20606493]},"geometry_name":"SHAPE","properties":{"OBJECTID":2893038,"ANL_NAME":"Josef-Pfeifer-Park","BEZIRK":3,"FLAECHE":"625 m²","OEFF_ZEITEN":"0:00-24:00","SPIELEN_IM_PARK":"Ja","WASSER_IM_PARK":"Ja","HUNDE_IM_PARK":"Nein","TELEFON":"01 4000 8042","WEBLINK1":"http://www.wien.gv.at/umwelt/parks/anlagen/index.html","SE_ANNO_CAD_DATA":null}},{"type":"Feature","id":"PARKINFOOGD.2893039","geometry":{"type":"Point","coordinates":[16.3991641,48.19424548]},"geometry_name":"SHAPE","properties":{"OBJECTID":2893039,"ANL_NAME":"Joe-Zawinul-Park","BEZIRK":3,"FLAECHE":"2.111 m²","OEFF_ZEITEN":"Okt-März: 7:15-20:00, Apr-Sep: 7:15-20:15","SPIELEN_IM_PARK":"Ja","WASSER_IM_PARK":"Ja","HUNDE_IM_PARK":"Nein","TELEFON":"01 4000 8042","WEBLINK1":"http://www.wien.gv.at/umwelt/parks/anlagen/index.html","SE_ANNO_CAD_DATA":null}},{"type":"Feature","id":"PARKINFOOGD.2893040","geometry":{"type":"Point","coordinates":[16.40395154,48.1960667]},"geometry_name":"SHAPE","properties":{"OBJECTID":2893040,"ANL_NAME":"Bock-Park","BEZIRK":3,"FLAECHE":"4.701 m²","OEFF_ZEITEN":"Hundezone: 6:00-20:00","SPIELEN_IM_PARK":"Ja","WASSER_IM_PARK":"Ja","HUNDE_IM_PARK":"Ja","TELEFON":"01 4000 8042","WEBLINK1":"http://www.wien.gv.at/umwelt/parks/anlagen/index.html","SE_ANNO_CAD_DATA":null}},{"type":"Feature","id":"PARKINFOOGD.2893041","geometry":{"type":"Point","coordinates":[16.40558643,48.19205706]},"geometry_name":"SHAPE","properties":{"OBJECTID":2893041,"ANL_NAME":"PA Baumgasse","BEZIRK":3,"FLAECHE":"21.450 m²","OEFF_ZEITEN":"0:00-24:00","SPIELEN_IM_PARK":"Ja","WASSER_IM_PARK":"Nein","HUNDE_IM_PARK":"Ja","TELEFON":"01 4000 8042","WEBLINK1":"http://www.wien.gv.at/umwelt/parks/anlagen/index.html","SE_ANNO_CAD_DATA":null}},{"type":"Feature","id":"PARKINFOOGD.2893042","geometry":{"type":"Point","coordinates":[16.39123029,48.19860129]},"geometry_name":"SHAPE","properties":{"OBJECTID":2893042,"ANL_NAME":"Arenbergpark","BEZIRK":3,"FLAECHE":"30.200 m²","OEFF_ZEITEN":"Ballspielkäfig: Okt-März: 6:45-20:15, Apr-Sep: 6:45-20:30","SPIELEN_IM_PARK":"Ja","WASSER_IM_PARK":"Ja","HUNDE_IM_PARK":"Nein","TELEFON":"01 4000 8042","WEBLINK1":"http://www.wien.gv.at/umwelt/parks/anlagen/index.html","SE_ANNO_CAD_DATA":null}},{"type":"Feature","id":"PARKINFOOGD.2893043","geometry":{"type":"Point","coordinates":[16.39494947,48.19661165]},"geometry_name":"SHAPE","properties":{"OBJECTID":2893043,"ANL_NAME":"Alma-Mahler-Werfel-Park","BEZIRK":3,"FLAECHE":"1.169 m²","OEFF_ZEITEN":"0:00-24:00","SPIELEN_IM_PARK":"Nein","WASSER_IM_PARK":"Ja","HUNDE_IM_PARK":"Nein","TELEFON":"01 4000 8042","WEBLINK1":"http://www.wien.gv.at/umwelt/parks/anlagen/index.html","SE_ANNO_CAD_DATA":null}},{"type":"Feature","id":"PARKINFOOGD.2893044","geometry":{"type":"Point","coordinates":[16.34689912,48.19235192]},"geometry_name":"SHAPE","properties":{"OBJECTID":2893044,"ANL_NAME":"Hubert-Marischka-Park","BEZIRK":6,"FLAECHE":"4.412 m²","OEFF_ZEITEN":"Okt-März:6:30-21:00, Apr-Sep:6:30-21:30","SPIELEN_IM_PARK":"Ja","WASSER_IM_PARK":"Ja","HUNDE_IM_PARK":"Nein","TELEFON":"01 4000 8042","WEBLINK1":"http://www.wien.gv.at/umwelt/parks/anlagen/index.html","SE_ANNO_CAD_DATA":null}},{"type":"Feature","id":"PARKINFOOGD.2893045","geometry":{"type":"Point","coordinates":[16.33942526,48.18958708]},"geometry_name":"SHAPE","properties":{"OBJECTID":2893045,"ANL_NAME":"Fritz-Imhoff-Park","BEZIRK":6,"FLAECHE":"4.329 m²","OEFF_ZEITEN":"0:00-24:00","SPIELEN_IM_PARK":"Ja","WASSER_IM_PARK":"Ja","HUNDE_IM_PARK":"Nein","TELEFON":"01 4000 8042","WEBLINK1":"http://www.wien.gv.at/umwelt/parks/anlagen/index.html","SE_ANNO_CAD_DATA":null}},{"type":"Feature","id":"PARKINFOOGD.2893046","geometry":{"type":"Point","coordinates":[16.3521819,48.19756515]},"geometry_name":"SHAPE","properties":{"OBJECTID":2893046,"ANL_NAME":"Esterházypark","BEZIRK":6,"FLAECHE":"11.248 m²","OEFF_ZEITEN":"Ballspielkäfig: Okt-März: 8:00-21:30, Apr-Sep: 8:00-21:45","SPIELEN_IM_PARK":"Ja","WASSER_IM_PARK":"Ja","HUNDE_IM_PARK":"Nein","TELEFON":"01 4000 8042","WEBLINK1":"http://www.wien.gv.at/umwelt/parks/anlagen/index.html","SE_ANNO_CAD_DATA":null}},{"type":"Feature","id":"PARKINFOOGD.2893047","geometry":{"type":"Point","coordinates":[16.24291457,48.22244236]},"geometry_name":"SHAPE","properties":{"OBJECTID":2893047,"ANL_NAME":"PA Eichbachgasse","BEZIRK":14,"FLAECHE":"7.733 m²","OEFF_ZEITEN":"0:00-24:00","SPIELEN_IM_PARK":"Nein","WASSER_IM_PARK":"Nein","HUNDE_IM_PARK":"Nein","TELEFON":"01 4000 8042","WEBLINK1":"http://www.wien.gv.at/umwelt/parks/anlagen/index.html","SE_ANNO_CAD_DATA":null}},{"type":"Feature","id":"PARKINFOOGD.2893048","geometry":{"type":"Point","coordinates":[16.30225375,48.19236836]},"geometry_name":"SHAPE","properties":{"OBJECTID":2893048,"ANL_NAME":"Eduard-Gurk-Park","BEZIRK":14,"FLAECHE":"2.342 m²","OEFF_ZEITEN":"0:00-24:00","SPIELEN_IM_PARK":"Ja","WASSER_IM_PARK":"Ja","HUNDE_IM_PARK":"Nein","TELEFON":"01 4000 8042","WEBLINK1":"http://www.wien.gv.at/umwelt/parks/anlagen/index.html","SE_ANNO_CAD_DATA":null}},{"type":"Feature","id":"PARKINFOOGD.2893049","geometry":{"type":"Point","coordinates":[16.25215394,48.2180588]},"geometry_name":"SHAPE","properties":{"OBJECTID":2893049,"ANL_NAME":"PA Dostgasse","BEZIRK":14,"FLAECHE":"1.608 m²","OEFF_ZEITEN":"0:00-24:00","SPIELEN_IM_PARK":"Nein","WASSER_IM_PARK":"Nein","HUNDE_IM_PARK":"Nein","TELEFON":"01 4000 8042","WEBLINK1":"http://www.wien.gv.at/umwelt/parks/anlagen/index.html","SE_ANNO_CAD_DATA":null}},{"type":"Feature","id":"PARKINFOOGD.2893050","geometry":{"type":"Point","coordinates":[16.26880675,48.196115]},"geometry_name":"SHAPE","properties":{"OBJECTID":2893050,"ANL_NAME":"PA Cossmanngasse","BEZIRK":14,"FLAECHE":"12.988 m²","OEFF_ZEITEN":"0:00-24:00","SPIELEN_IM_PARK":"Ja","WASSER_IM_PARK":"Ja","HUNDE_IM_PARK":"Nein","TELEFON":"01 4000 8042","WEBLINK1":"http://www.wien.gv.at/umwelt/parks/anlagen/index.html","SE_ANNO_CAD_DATA":null}},{"type":"Feature","id":"PARKINFOOGD.2893051","geometry":{"type":"Point","coordinates":[16.30436171,48.20877672]},"geometry_name":"SHAPE","properties":{"OBJECTID":2893051,"ANL_NAME":"PA Joachimsthalerplatz","BEZIRK":16,"FLAECHE":"1.127 m²","OEFF_ZEITEN":"0:00-24:00","SPIELEN_IM_PARK":"Nein","WASSER_IM_PARK":"Ja","HUNDE_IM_PARK":"Nein","TELEFON":"01 4000 8042","WEBLINK1":"http://www.wien.gv.at/umwelt/parks/anlagen/index.html","SE_ANNO_CAD_DATA":null}},{"type":"Feature","id":"PARKINFOOGD.2893052","geometry":{"type":"Point","coordinates":[16.33281508,48.2133634]},"geometry_name":"SHAPE","properties":{"OBJECTID":2893052,"ANL_NAME":"Huberpark","BEZIRK":16,"FLAECHE":"4.586 m²","OEFF_ZEITEN":"März-Nov: 06:00-22:00, Dez-Feb: keine Sperre","SPIELEN_IM_PARK":"Ja","WASSER_IM_PARK":"Ja","HUNDE_IM_PARK":"Nein","TELEFON":"01 4000 8042","WEBLINK1":"http://www.wien.gv.at/umwelt/parks/anlagen/index.html","SE_ANNO_CAD_DATA":null}},{"type":"Feature","id":"PARKINFOOGD.2893053","geometry":{"type":"Point","coordinates":[16.33328689,48.20869946]},"geometry_name":"SHAPE","properties":{"OBJECTID":2893053,"ANL_NAME":"PA Hofferplatz","BEZIRK":16,"FLAECHE":"2.453 m²","OEFF_ZEITEN":"Ballspielkäfig: März-Nov: 08:00-20:30, Dez-Feb: keine Sperre","SPIELEN_IM_PARK":"Ja","WASSER_IM_PARK":"Ja","HUNDE_IM_PARK":"Nein","TELEFON":"01 4000 8042","WEBLINK1":"http://www.wien.gv.at/umwelt/parks/anlagen/index.html","SE_ANNO_CAD_DATA":null}},{"type":"Feature","id":"PARKINFOOGD.2893054","geometry":{"type":"Point","coordinates":[16.31308481,48.20925385]},"geometry_name":"SHAPE","properties":{"OBJECTID":2893054,"ANL_NAME":"PA Hettenkofergasse","BEZIRK":16,"FLAECHE":"2.016 m²","OEFF_ZEITEN":"Ballspielkäfig: März-Nov: 07:00-20:00, Dez-Feb: keine Sperre","SPIELEN_IM_PARK":"Ja","WASSER_IM_PARK":"Ja","HUNDE_IM_PARK":"Nein","TELEFON":"01 4000 8042","WEBLINK1":"http://www.wien.gv.at/umwelt/parks/anlagen/index.html","SE_ANNO_CAD_DATA":null}},{"type":"Feature","id":"PARKINFOOGD.2893055","geometry":{"type":"Point","coordinates":[16.31302549,48.22031705]},"geometry_name":"SHAPE","properties":{"OBJECTID":2893055,"ANL_NAME":"Else-Federn-Park","BEZIRK":16,"FLAECHE":"4.665 m²","OEFF_ZEITEN":"0:00-24:00","SPIELEN_IM_PARK":"Ja","WASSER_IM_PARK":"Ja","HUNDE_IM_PARK":"Nein","TELEFON":"01 4000 8042","WEBLINK1":"http://www.wien.gv.at/umwelt/parks/anlagen/index.html","SE_ANNO_CAD_DATA":null}},{"type":"Feature","id":"PARKINFOOGD.2893056","geometry":{"type":"Point","coordinates":[16.33191614,48.21060029]},"geometry_name":"SHAPE","properties":{"OBJECTID":2893056,"ANL_NAME":"Leon-Askin-Park","BEZIRK":16,"FLAECHE":"1.439 m²","OEFF_ZEITEN":"0:00-24:00","SPIELEN_IM_PARK":"Ja","WASSER_IM_PARK":"Ja","HUNDE_IM_PARK":"Nein","TELEFON":"01 4000 8042","WEBLINK1":"http://www.wien.gv.at/umwelt/parks/anlagen/index.html","SE_ANNO_CAD_DATA":null}},{"type":"Feature","id":"PARKINFOOGD.2893057","geometry":{"type":"Point","coordinates":[16.31833575,48.21456643]},"geometry_name":"SHAPE","properties":{"OBJECTID":2893057,"ANL_NAME":"PA Familienplatz","BEZIRK":16,"FLAECHE":"3.611 m²","OEFF_ZEITEN":"0:00-24:00","SPIELEN_IM_PARK":"Ja","WASSER_IM_PARK":"Ja","HUNDE_IM_PARK":"Nein","TELEFON":"01 4000 8042","WEBLINK1":"http://www.wien.gv.at/umwelt/parks/anlagen/index.html","SE_ANNO_CAD_DATA":null}},{"type":"Feature","id":"PARKINFOOGD.2893058","geometry":{"type":"Point","coordinates":[16.30234551,48.22108313]},"geometry_name":"SHAPE","properties":{"OBJECTID":2893058,"ANL_NAME":"PA Baumeistergasse","BEZIRK":16,"FLAECHE":"2.489 m²","OEFF_ZEITEN":"0:00-24:00","SPIELEN_IM_PARK":"Nein","WASSER_IM_PARK":"Nein","HUNDE_IM_PARK":"Nein","TELEFON":"01 4000 8042","WEBLINK1":"http://www.wien.gv.at/umwelt/parks/anlagen/index.html","SE_ANNO_CAD_DATA":null}},{"type":"Feature","id":"PARKINFOOGD.2893059","geometry":{"type":"Point","coordinates":[16.31906283,48.19393342]},"geometry_name":"SHAPE","properties":{"OBJECTID":2893059,"ANL_NAME":"Regine-Landeis-Park","BEZIRK":15,"FLAECHE":"2.556 m²","OEFF_ZEITEN":"0:00-24:00","SPIELEN_IM_PARK":"Ja","WASSER_IM_PARK":"Ja","HUNDE_IM_PARK":"Nein","TELEFON":"01 4000 8042","WEBLINK1":"http://www.wien.gv.at/umwelt/parks/anlagen/index.html","SE_ANNO_CAD_DATA":null}},{"type":"Feature","id":"PARKINFOOGD.2893060","geometry":{"type":"Point","coordinates":[16.3251065,48.19946376]},"geometry_name":"SHAPE","properties":{"OBJECTID":2893060,"ANL_NAME":"PA Tannhäuserplatz","BEZIRK":15,"FLAECHE":"370 m²","OEFF_ZEITEN":"0:00-24:00","SPIELEN_IM_PARK":"Nein","WASSER_IM_PARK":"Nein","HUNDE_IM_PARK":"Nein","TELEFON":"01 4000 8042","WEBLINK1":"http://www.wien.gv.at/umwelt/parks/anlagen/index.html","SE_ANNO_CAD_DATA":null}},{"type":"Feature","id":"PARKINFOOGD.2893127","geometry":{"type":"Point","coordinates":[16.43411381,48.16836708]},"geometry_name":"SHAPE","properties":{"OBJECTID":2893127,"ANL_NAME":"Seeschlachtpark","BEZIRK":11,"FLAECHE":"3.891 m²","OEFF_ZEITEN":"0:00-24:00","SPIELEN_IM_PARK":"Ja","WASSER_IM_PARK":"Ja","HUNDE_IM_PARK":"Nein","TELEFON":"01 4000 8042","WEBLINK1":"http://www.wien.gv.at/umwelt/parks/anlagen/index.html","SE_ANNO_CAD_DATA":null}},{"type":"Feature","id":"PARKINFOOGD.2893128","geometry":{"type":"Point","coordinates":[16.41598684,48.16505762]},"geometry_name":"SHAPE","properties":{"OBJECTID":2893128,"ANL_NAME":"PA Hasenleitengasse","BEZIRK":11,"FLAECHE":"10.010 m²","OEFF_ZEITEN":"0:00-24:00","SPIELEN_IM_PARK":"Nein","WASSER_IM_PARK":"Nein","HUNDE_IM_PARK":"Nein","TELEFON":"01 4000 8042","WEBLINK1":"http://www.wien.gv.at/umwelt/parks/anlagen/index.html","SE_ANNO_CAD_DATA":null}},{"type":"Feature","id":"PARKINFOOGD.2893129","geometry":{"type":"Point","coordinates":[16.38662342,48.15623502]},"geometry_name":"SHAPE","properties":{"OBJECTID":2893129,"ANL_NAME":"Volkspark Laaerberg","BEZIRK":10,"FLAECHE":"202.272 m²","OEFF_ZEITEN":"0:00-24:00","SPIELEN_IM_PARK":"Ja","WASSER_IM_PARK":"Ja","HUNDE_IM_PARK":"Ja","TELEFON":"01 4000 8042","WEBLINK1":"http://www.wien.gv.at/umwelt/parks/anlagen/index.html","SE_ANNO_CAD_DATA":null}},{"type":"Feature","id":"PARKINFOOGD.2893130","geometry":{"type":"Point","coordinates":[16.36808352,48.2202981]},"geometry_name":"SHAPE","properties":{"OBJECTID":2893130,"ANL_NAME":"Olga-Misař-Promenade","BEZIRK":9,"FLAECHE":"9.879 m²","OEFF_ZEITEN":"0:00-24:00","SPIELEN_IM_PARK":"Ja","WASSER_IM_PARK":"Ja","HUNDE_IM_PARK":"Nein","TELEFON":"01 4000 8042","WEBLINK1":"http://www.wien.gv.at/umwelt/parks/anlagen/index.html","SE_ANNO_CAD_DATA":null}},{"type":"Feature","id":"PARKINFOOGD.2893131","geometry":{"type":"Point","coordinates":[16.40236072,48.18407362]},"geometry_name":"SHAPE","properties":{"OBJECTID":2893131,"ANL_NAME":"Hans-Pemmer-Park","BEZIRK":3,"FLAECHE":"7.596 m²","OEFF_ZEITEN":"0:00-24:00","SPIELEN_IM_PARK":"Ja","WASSER_IM_PARK":"Nein","HUNDE_IM_PARK":"Nein","TELEFON":"01 4000 8042","WEBLINK1":"http://www.wien.gv.at/umwelt/parks/anlagen/index.html","SE_ANNO_CAD_DATA":null}},{"type":"Feature","id":"PARKINFOOGD.2893132","geometry":{"type":"Point","coordinates":[16.33744438,48.19319089]},"geometry_name":"SHAPE","properties":{"OBJECTID":2893132,"ANL_NAME":"PA Maria vom Siege","BEZIRK":15,"FLAECHE":"3.370 m²","OEFF_ZEITEN":"0:00-24:00","SPIELEN_IM_PARK":"Ja","WASSER_IM_PARK":"Ja","HUNDE_IM_PARK":"Nein","TELEFON":"01 4000 8042","WEBLINK1":"http://www.wien.gv.at/umwelt/parks/anlagen/index.html","SE_ANNO_CAD_DATA":null}},{"type":"Feature","id":"PARKINFOOGD.2893133","geometry":{"type":"Point","coordinates":[16.42049396,48.2977392]},"geometry_name":"SHAPE","properties":{"OBJECTID":2893133,"ANL_NAME":"PA Bahnhofplatz","BEZIRK":21,"FLAECHE":"1.226 m²","OEFF_ZEITEN":"0:00-24:00","SPIELEN_IM_PARK":"Nein","WASSER_IM_PARK":"Ja","HUNDE_IM_PARK":"Nein","TELEFON":"01 4000 8042","WEBLINK1":"http://www.wien.gv.at/umwelt/parks/anlagen/index.html","SE_ANNO_CAD_DATA":null}},{"type":"Feature","id":"PARKINFOOGD.2893134","geometry":{"type":"Point","coordinates":[16.33832878,48.24473796]},"geometry_name":"SHAPE","properties":{"OBJECTID":2893134,"ANL_NAME":"Olympiapark","BEZIRK":19,"FLAECHE":"13.458 m²","OEFF_ZEITEN":"Ballspielplatz: Okt-Mär: 7:00-19:00, Apr-Sep: 7:00-22:00","SPIELEN_IM_PARK":"Ja","WASSER_IM_PARK":"Ja","HUNDE_IM_PARK":"Ja","TELEFON":"01 4000 8042","WEBLINK1":"http://www.wien.gv.at/umwelt/parks/anlagen/index.html","SE_ANNO_CAD_DATA":null}},{"type":"Feature","id":"PARKINFOOGD.2893135","geometry":{"type":"Point","coordinates":[16.396771,48.2452415]},"geometry_name":"SHAPE","properties":{"OBJECTID":2893135,"ANL_NAME":"PA Am Bruckhaufen","BEZIRK":21,"FLAECHE":"2.609 m²","OEFF_ZEITEN":"0:00-24:00","SPIELEN_IM_PARK":"Nein","WASSER_IM_PARK":"Nein","HUNDE_IM_PARK":"Nein","TELEFON":"01 4000 8042","WEBLINK1":"http://www.wien.gv.at/umwelt/parks/anlagen/index.html","SE_ANNO_CAD_DATA":null}},{"type":"Feature","id":"PARKINFOOGD.2893136","geometry":{"type":"Point","coordinates":[16.3485317,48.23236552]},"geometry_name":"SHAPE","properties":{"OBJECTID":2893136,"ANL_NAME":"Währinger Park","BEZIRK":18,"FLAECHE":"48.190 m²","OEFF_ZEITEN":"0:00-24:00","SPIELEN_IM_PARK":"Ja","WASSER_IM_PARK":"Ja","HUNDE_IM_PARK":"Ja","TELEFON":"01 4000 8042","WEBLINK1":"http://www.wien.gv.at/umwelt/parks/anlagen/index.html","SE_ANNO_CAD_DATA":null}},{"type":"Feature","id":"PARKINFOOGD.2893137","geometry":{"type":"Point","coordinates":[16.24956197,48.20220277]},"geometry_name":"SHAPE","properties":{"OBJECTID":2893137,"ANL_NAME":"Ferdinand-Wolf-Park","BEZIRK":14,"FLAECHE":"23.669 m²","OEFF_ZEITEN":"0:00-24:00","SPIELEN_IM_PARK":"Ja","WASSER_IM_PARK":"Ja","HUNDE_IM_PARK":"Ja","TELEFON":"01 4000 8042","WEBLINK1":"http://www.wien.gv.at/umwelt/parks/anlagen/index.html","SE_ANNO_CAD_DATA":null}},{"type":"Feature","id":"PARKINFOOGD.2893138","geometry":{"type":"Point","coordinates":[16.30858234,48.22173991]},"geometry_name":"SHAPE","properties":{"OBJECTID":2893138,"ANL_NAME":"Kongreßpark","BEZIRK":16,"FLAECHE":"51.908 m²","OEFF_ZEITEN":"Ballspiel:März-Nov v. Mo-Fr:07:00-20:00,Sa+So:09:00-20:30,Hundezone:06:00-22:00,Dez-Feb:keine Sperre","SPIELEN_IM_PARK":"Ja","WASSER_IM_PARK":"Ja","HUNDE_IM_PARK":"Ja","TELEFON":"01 4000 8042","WEBLINK1":"http://www.wien.gv.at/umwelt/parks/anlagen/index.html","SE_ANNO_CAD_DATA":null}},{"type":"Feature","id":"PARKINFOOGD.2893139","geometry":{"type":"Point","coordinates":[16.30473356,48.2140977]},"geometry_name":"SHAPE","properties":{"OBJECTID":2893139,"ANL_NAME":"Karl-Kantner-Park","BEZIRK":16,"FLAECHE":"5.765 m²","OEFF_ZEITEN":"0:00-24:00","SPIELEN_IM_PARK":"Ja","WASSER_IM_PARK":"Ja","HUNDE_IM_PARK":"Nein","TELEFON":"01 4000 8042","WEBLINK1":"http://www.wien.gv.at/umwelt/parks/anlagen/index.html","SE_ANNO_CAD_DATA":null}},{"type":"Feature","id":"PARKINFOOGD.2893140","geometry":{"type":"Point","coordinates":[16.36015061,48.25699393]},"geometry_name":"SHAPE","properties":{"OBJECTID":2893140,"ANL_NAME":"PA Hammerschmidtgasse","BEZIRK":19,"FLAECHE":"1.469 m²","OEFF_ZEITEN":"0:00-24:00","SPIELEN_IM_PARK":"Nein","WASSER_IM_PARK":"Nein","HUNDE_IM_PARK":"Nein","TELEFON":"01 4000 8042","WEBLINK1":"http://www.wien.gv.at/umwelt/parks/anlagen/index.html","SE_ANNO_CAD_DATA":null}},{"type":"Feature","id":"PARKINFOOGD.2893141","geometry":{"type":"Point","coordinates":[16.3128147,48.25040665]},"geometry_name":"SHAPE","properties":{"OBJECTID":2893141,"ANL_NAME":"PA Am Neustiftblick","BEZIRK":19,"FLAECHE":"2.928 m²","OEFF_ZEITEN":"0:00-24:00","SPIELEN_IM_PARK":"Ja","WASSER_IM_PARK":"Ja","HUNDE_IM_PARK":"Nein","TELEFON":"01 4000 8042","WEBLINK1":"http://www.wien.gv.at/umwelt/parks/anlagen/index.html","SE_ANNO_CAD_DATA":null}},{"type":"Feature","id":"PARKINFOOGD.2893142","geometry":{"type":"Point","coordinates":[16.33116052,48.24561642]},"geometry_name":"SHAPE","properties":{"OBJECTID":2893142,"ANL_NAME":"PA Börnergasse","BEZIRK":19,"FLAECHE":"7.769 m²","OEFF_ZEITEN":"Ballspielkäfig: Okt-Mär: 7:00-19:00, Apr-Sep: 7:00-22:00","SPIELEN_IM_PARK":"Ja","WASSER_IM_PARK":"Ja","HUNDE_IM_PARK":"Nein","TELEFON":"01 4000 8042","WEBLINK1":"http://www.wien.gv.at/umwelt/parks/anlagen/index.html","SE_ANNO_CAD_DATA":null}},{"type":"Feature","id":"PARKINFOOGD.2893143","geometry":{"type":"Point","coordinates":[16.35359673,48.25850411]},"geometry_name":"SHAPE","properties":{"OBJECTID":2893143,"ANL_NAME":"Beethovenpark","BEZIRK":19,"FLAECHE":"15.304 m²","OEFF_ZEITEN":"0:00-24:00, Ballspielkäfig: 06:00-21:30","SPIELEN_IM_PARK":"Ja","WASSER_IM_PARK":"Ja","HUNDE_IM_PARK":"Ja","TELEFON":"01 4000 8042","WEBLINK1":"http://www.wien.gv.at/umwelt/parks/anlagen/index.html","SE_ANNO_CAD_DATA":null}},{"type":"Feature","id":"PARKINFOOGD.2893144","geometry":{"type":"Point","coordinates":[16.36371913,48.24945218]},"geometry_name":"SHAPE","properties":{"OBJECTID":2893144,"ANL_NAME":"PA 12. Februar-Platz","BEZIRK":19,"FLAECHE":"10.417 m²","OEFF_ZEITEN":"0:00-24:00","SPIELEN_IM_PARK":"Ja","WASSER_IM_PARK":"Nein","HUNDE_IM_PARK":"Nein","TELEFON":"01 4000 8042","WEBLINK1":"http://www.wien.gv.at/umwelt/parks/anlagen/index.html","SE_ANNO_CAD_DATA":null}},{"type":"Feature","id":"PARKINFOOGD.2893145","geometry":{"type":"Point","coordinates":[16.37488211,48.19869039]},"geometry_name":"SHAPE","properties":{"OBJECTID":2893145,"ANL_NAME":"PA Französische Botschaft","BEZIRK":4,"FLAECHE":"972 m²","OEFF_ZEITEN":"0:00-24:00","SPIELEN_IM_PARK":"Nein","WASSER_IM_PARK":"Nein","HUNDE_IM_PARK":"Nein","TELEFON":"01 4000 8042","WEBLINK1":"http://www.wien.gv.at/umwelt/parks/anlagen/index.html","SE_ANNO_CAD_DATA":null}},{"type":"Feature","id":"PARKINFOOGD.2893146","geometry":{"type":"Point","coordinates":[16.34608908,48.22368005]},"geometry_name":"SHAPE","properties":{"OBJECTID":2893146,"ANL_NAME":"Vilma-Degischer-Park","BEZIRK":18,"FLAECHE":"1.225 m²","OEFF_ZEITEN":"0:00-24:00","SPIELEN_IM_PARK":"Ja","WASSER_IM_PARK":"Ja","HUNDE_IM_PARK":"Nein","TELEFON":"01 4000 8042","WEBLINK1":"http://www.wien.gv.at/umwelt/parks/anlagen/index.html","SE_ANNO_CAD_DATA":null}},{"type":"Feature","id":"PARKINFOOGD.2893147","geometry":{"type":"Point","coordinates":[16.30074462,48.23942665]},"geometry_name":"SHAPE","properties":{"OBJECTID":2893147,"ANL_NAME":"PA Ladenburghöhe","BEZIRK":18,"FLAECHE":"5.934 m²","OEFF_ZEITEN":"0:00-24:00","SPIELEN_IM_PARK":"Ja","WASSER_IM_PARK":"Nein","HUNDE_IM_PARK":"Nein","TELEFON":"01 4000 8042","WEBLINK1":"http://www.wien.gv.at/umwelt/parks/anlagen/index.html","SE_ANNO_CAD_DATA":null}},{"type":"Feature","id":"PARKINFOOGD.2893148","geometry":{"type":"Point","coordinates":[16.40333083,48.18782409]},"geometry_name":"SHAPE","properties":{"OBJECTID":2893148,"ANL_NAME":"Robert-Hochner-Park","BEZIRK":3,"FLAECHE":"3.317 m²","OEFF_ZEITEN":"0:00-24:00","SPIELEN_IM_PARK":"Nein","WASSER_IM_PARK":"Ja","HUNDE_IM_PARK":"Nein","TELEFON":"01 4000 8042","WEBLINK1":"http://www.wien.gv.at/umwelt/parks/anlagen/index.html","SE_ANNO_CAD_DATA":null}},{"type":"Feature","id":"PARKINFOOGD.2893149","geometry":{"type":"Point","coordinates":[16.48949092,48.27667439]},"geometry_name":"SHAPE","properties":{"OBJECTID":2893149,"ANL_NAME":"Badeteich Süßenbrunn","BEZIRK":22,"FLAECHE":"90.051 m²","OEFF_ZEITEN":"0:00-24:00","SPIELEN_IM_PARK":"Ja","WASSER_IM_PARK":"Ja","HUNDE_IM_PARK":"Nein","TELEFON":"01 4000 8042","WEBLINK1":"http://www.wien.gv.at/umwelt/parks/anlagen/index.html","SE_ANNO_CAD_DATA":null}},{"type":"Feature","id":"PARKINFOOGD.2893150","geometry":{"type":"Point","coordinates":[16.48368333,48.21869056]},"geometry_name":"SHAPE","properties":{"OBJECTID":2893150,"ANL_NAME":"PA Eisenhutgasse","BEZIRK":22,"FLAECHE":"1.865 m²","OEFF_ZEITEN":"0:00-24:00","SPIELEN_IM_PARK":"Ja","WASSER_IM_PARK":"Nein","HUNDE_IM_PARK":"Nein","TELEFON":"01 4000 8042","WEBLINK1":"http://www.wien.gv.at/umwelt/parks/anlagen/index.html","SE_ANNO_CAD_DATA":null}},{"type":"Feature","id":"PARKINFOOGD.2893151","geometry":{"type":"Point","coordinates":[16.34028211,48.18808541]},"geometry_name":"SHAPE","properties":{"OBJECTID":2893151,"ANL_NAME":"GA Gaudenzdorfer Knoten","BEZIRK":12,"FLAECHE":"10.849 m²","OEFF_ZEITEN":"0:00-24:00","SPIELEN_IM_PARK":"Nein","WASSER_IM_PARK":"Nein","HUNDE_IM_PARK":"Nein","TELEFON":"01 4000 8042","WEBLINK1":"http://www.wien.gv.at/umwelt/parks/anlagen/index.html","SE_ANNO_CAD_DATA":null}},{"type":"Feature","id":"PARKINFOOGD.2893152","geometry":{"type":"Point","coordinates":[16.39108083,48.16799956]},"geometry_name":"SHAPE","properties":{"OBJECTID":2893152,"ANL_NAME":"PA Moselgasse","BEZIRK":10,"FLAECHE":"2.377 m²","OEFF_ZEITEN":"0:00-24:00","SPIELEN_IM_PARK":"Nein","WASSER_IM_PARK":"Nein","HUNDE_IM_PARK":"Nein","TELEFON":"01 4000 8042","WEBLINK1":"http://www.wien.gv.at/umwelt/parks/anlagen/index.html","SE_ANNO_CAD_DATA":null}},{"type":"Feature","id":"PARKINFOOGD.2893153","geometry":{"type":"Point","coordinates":[16.37530453,48.15207525]},"geometry_name":"SHAPE","properties":{"OBJECTID":2893153,"ANL_NAME":"PA Pichelmayergasse","BEZIRK":10,"FLAECHE":"26.170 m²","OEFF_ZEITEN":"0:00-24:00","SPIELEN_IM_PARK":"Ja","WASSER_IM_PARK":"Nein","HUNDE_IM_PARK":"Nein","TELEFON":"01 4000 8042","WEBLINK1":"http://www.wien.gv.at/umwelt/parks/anlagen/index.html","SE_ANNO_CAD_DATA":null}},{"type":"Feature","id":"PARKINFOOGD.2893154","geometry":{"type":"Point","coordinates":[16.37112861,48.191022]},"geometry_name":"SHAPE","properties":{"OBJECTID":2893154,"ANL_NAME":"PA Bertha-von-Suttner-Hof","BEZIRK":4,"FLAECHE":"295 m²","OEFF_ZEITEN":"0:00-24:00","SPIELEN_IM_PARK":"Nein","WASSER_IM_PARK":"Nein","HUNDE_IM_PARK":"Nein","TELEFON":"01 4000 8042","WEBLINK1":"http://www.wien.gv.at/umwelt/parks/anlagen/index.html","SE_ANNO_CAD_DATA":null}},{"type":"Feature","id":"PARKINFOOGD.2893155","geometry":{"type":"Point","coordinates":[16.36910077,48.22160739]},"geometry_name":"SHAPE","properties":{"OBJECTID":2893155,"ANL_NAME":"Wettsteinpark","BEZIRK":2,"FLAECHE":"15.971 m²","OEFF_ZEITEN":"0:00-24:00","SPIELEN_IM_PARK":"Ja","WASSER_IM_PARK":"Ja","HUNDE_IM_PARK":"Nein","TELEFON":"01 4000 8042","WEBLINK1":"http://www.wien.gv.at/umwelt/parks/anlagen/index.html","SE_ANNO_CAD_DATA":null}},{"type":"Feature","id":"PARKINFOOGD.2893156","geometry":{"type":"Point","coordinates":[16.43027244,48.19964099]},"geometry_name":"SHAPE","properties":{"OBJECTID":2893156,"ANL_NAME":"Prater - Sonnenscheinwiese","BEZIRK":2,"FLAECHE":"141.396 m²","OEFF_ZEITEN":"0:00-24:00","SPIELEN_IM_PARK":"Ja","WASSER_IM_PARK":"Nein","HUNDE_IM_PARK":"Nein","TELEFON":"01 4000 8042","WEBLINK1":"http://www.wien.gv.at/umwelt/parks/anlagen/index.html","SE_ANNO_CAD_DATA":null}},{"type":"Feature","id":"PARKINFOOGD.2893157","geometry":{"type":"Point","coordinates":[16.37654202,48.22181024]},"geometry_name":"SHAPE","properties":{"OBJECTID":2893157,"ANL_NAME":"Mignon-Langnas-Park","BEZIRK":2,"FLAECHE":"4.184 m²","OEFF_ZEITEN":"0:00-24:00","SPIELEN_IM_PARK":"Nein","WASSER_IM_PARK":"Nein","HUNDE_IM_PARK":"Nein","TELEFON":"01 4000 8042","WEBLINK1":"http://www.wien.gv.at/umwelt/parks/anlagen/index.html","SE_ANNO_CAD_DATA":null}},{"type":"Feature","id":"PARKINFOOGD.2893158","geometry":{"type":"Point","coordinates":[16.36002712,48.18652632]},"geometry_name":"SHAPE","properties":{"OBJECTID":2893158,"ANL_NAME":"PA Zentaplatz","BEZIRK":5,"FLAECHE":"1.417 m²","OEFF_ZEITEN":"6:45-21:30","SPIELEN_IM_PARK":"Ja","WASSER_IM_PARK":"Ja","HUNDE_IM_PARK":"Nein","TELEFON":"01 4000 8042","WEBLINK1":"http://www.wien.gv.at/umwelt/parks/anlagen/index.html","SE_ANNO_CAD_DATA":null}},{"type":"Feature","id":"PARKINFOOGD.2893174","geometry":{"type":"Point","coordinates":[16.35557013,48.18778964]},"geometry_name":"SHAPE","properties":{"OBJECTID":2893174,"ANL_NAME":"Bacherpark","BEZIRK":5,"FLAECHE":"6.120 m²","OEFF_ZEITEN":"Ballspielkäfig: 6:15-22:00","SPIELEN_IM_PARK":"Ja","WASSER_IM_PARK":"Ja","HUNDE_IM_PARK":"Nein","TELEFON":"01 4000 8042","WEBLINK1":"http://www.wien.gv.at/umwelt/parks/anlagen/index.html","SE_ANNO_CAD_DATA":null}},{"type":"Feature","id":"PARKINFOOGD.2893175","geometry":{"type":"Point","coordinates":[16.34737753,48.18719113]},"geometry_name":"SHAPE","properties":{"OBJECTID":2893175,"ANL_NAME":"PA Am Hundsturm","BEZIRK":5,"FLAECHE":"4.077 m²","OEFF_ZEITEN":"Hundezone:6:45-21:45","SPIELEN_IM_PARK":"Ja","WASSER_IM_PARK":"Ja","HUNDE_IM_PARK":"Nein","TELEFON":"01 4000 8042","WEBLINK1":"http://www.wien.gv.at/umwelt/parks/anlagen/index.html","SE_ANNO_CAD_DATA":null}},{"type":"Feature","id":"PARKINFOOGD.2893176","geometry":{"type":"Point","coordinates":[16.36528095,48.19155487]},"geometry_name":"SHAPE","properties":{"OBJECTID":2893176,"ANL_NAME":"Rubenspark","BEZIRK":4,"FLAECHE":"2.871 m²","OEFF_ZEITEN":"0:00-24:00","SPIELEN_IM_PARK":"Ja","WASSER_IM_PARK":"Ja","HUNDE_IM_PARK":"Nein","TELEFON":"01 4000 8042","WEBLINK1":"http://www.wien.gv.at/umwelt/parks/anlagen/index.html","SE_ANNO_CAD_DATA":null}},{"type":"Feature","id":"PARKINFOOGD.2893177","geometry":{"type":"Point","coordinates":[16.37118661,48.19936053]},"geometry_name":"SHAPE","properties":{"OBJECTID":2893177,"ANL_NAME":"Resselpark","BEZIRK":4,"FLAECHE":"41.529 m²","OEFF_ZEITEN":"0:00-24:00","SPIELEN_IM_PARK":"Ja","WASSER_IM_PARK":"Ja","HUNDE_IM_PARK":"Ja","TELEFON":"01 4000 8042","WEBLINK1":"http://www.wien.gv.at/umwelt/parks/anlagen/index.html","SE_ANNO_CAD_DATA":null}},{"type":"Feature","id":"PARKINFOOGD.2893178","geometry":{"type":"Point","coordinates":[16.38445084,48.16698709]},"geometry_name":"SHAPE","properties":{"OBJECTID":2893178,"ANL_NAME":"Alfred-Böhm-Park","BEZIRK":10,"FLAECHE":"33.768 m²","OEFF_ZEITEN":"Ballspielkäfig+Hundezone+Skateranlage:06:00-21:00","SPIELEN_IM_PARK":"Ja","WASSER_IM_PARK":"Ja","HUNDE_IM_PARK":"Nein","TELEFON":"01 4000 8042","WEBLINK1":"http://www.wien.gv.at/umwelt/parks/anlagen/index.html","SE_ANNO_CAD_DATA":null}},{"type":"Feature","id":"PARKINFOOGD.2893179","geometry":{"type":"Point","coordinates":[16.35837977,48.21569981]},"geometry_name":"SHAPE","properties":{"OBJECTID":2893179,"ANL_NAME":"Votivpark","BEZIRK":9,"FLAECHE":"16.787 m²","OEFF_ZEITEN":"0:00-24:00","SPIELEN_IM_PARK":"Ja","WASSER_IM_PARK":"Ja","HUNDE_IM_PARK":"Ja","TELEFON":"01 4000 8042","WEBLINK1":"http://www.wien.gv.at/umwelt/parks/anlagen/index.html","SE_ANNO_CAD_DATA":null}},{"type":"Feature","id":"PARKINFOOGD.2893180","geometry":{"type":"Point","coordinates":[16.36063768,48.21463035]},"geometry_name":"SHAPE","properties":{"OBJECTID":2893180,"ANL_NAME":"Sigmund-Freud-Park","BEZIRK":9,"FLAECHE":"14.464 m²","OEFF_ZEITEN":"0:00-24:00","SPIELEN_IM_PARK":"Nein","WASSER_IM_PARK":"Ja","HUNDE_IM_PARK":"Nein","TELEFON":"01 4000 8042","WEBLINK1":"http://www.wien.gv.at/umwelt/parks/anlagen/index.html","SE_ANNO_CAD_DATA":null}},{"type":"Feature","id":"PARKINFOOGD.2893181","geometry":{"type":"Point","coordinates":[16.35825754,48.2267121]},"geometry_name":"SHAPE","properties":{"OBJECTID":2893181,"ANL_NAME":"Lichtentalerpark","BEZIRK":9,"FLAECHE":"4.781 m²","OEFF_ZEITEN":"Ballspielkäfig: 7:00-21:00","SPIELEN_IM_PARK":"Ja","WASSER_IM_PARK":"Ja","HUNDE_IM_PARK":"Nein","TELEFON":"01 4000 8042","WEBLINK1":"http://www.wien.gv.at/umwelt/parks/anlagen/index.html","SE_ANNO_CAD_DATA":null}},{"type":"Feature","id":"PARKINFOOGD.2893182","geometry":{"type":"Point","coordinates":[16.35525696,48.23127573]},"geometry_name":"SHAPE","properties":{"OBJECTID":2893182,"ANL_NAME":"PA Latschkagasse","BEZIRK":9,"FLAECHE":"395 m²","OEFF_ZEITEN":"0:00-24:00","SPIELEN_IM_PARK":"Ja","WASSER_IM_PARK":"Nein","HUNDE_IM_PARK":"Nein","TELEFON":"01 4000 8042","WEBLINK1":"http://www.wien.gv.at/umwelt/parks/anlagen/index.html","SE_ANNO_CAD_DATA":null}},{"type":"Feature","id":"PARKINFOOGD.2893183","geometry":{"type":"Point","coordinates":[16.35136152,48.22515139]},"geometry_name":"SHAPE","properties":{"OBJECTID":2893183,"ANL_NAME":"PA Bertha-Löwi-Weg","BEZIRK":9,"FLAECHE":"1.025 m²","OEFF_ZEITEN":"0:00-24:00","SPIELEN_IM_PARK":"Nein","WASSER_IM_PARK":"Nein","HUNDE_IM_PARK":"Nein","TELEFON":"01 4000 8042","WEBLINK1":"http://www.wien.gv.at/umwelt/parks/anlagen/index.html","SE_ANNO_CAD_DATA":null}},{"type":"Feature","id":"PARKINFOOGD.2893184","geometry":{"type":"Point","coordinates":[16.34531757,48.20871714]},"geometry_name":"SHAPE","properties":{"OBJECTID":2893184,"ANL_NAME":"Tigerpark","BEZIRK":8,"FLAECHE":"2.004 m²","OEFF_ZEITEN":"Okt-März: 07:00-22:00, Apr-Sep:06:30-21:15","SPIELEN_IM_PARK":"Ja","WASSER_IM_PARK":"Ja","HUNDE_IM_PARK":"Nein","TELEFON":"01 4000 8042","WEBLINK1":"http://www.wien.gv.at/umwelt/parks/anlagen/index.html","SE_ANNO_CAD_DATA":null}},{"type":"Feature","id":"PARKINFOOGD.2899345","geometry":{"type":"Point","coordinates":[16.35063267,48.21239646]},"geometry_name":"SHAPE","properties":{"OBJECTID":2899345,"ANL_NAME":"Schönbornpark","BEZIRK":8,"FLAECHE":"9.650 m²","OEFF_ZEITEN":"Okt-März: 06:20-19:45, Apr-Sep:6:50-21:30","SPIELEN_IM_PARK":"Ja","WASSER_IM_PARK":"Ja","HUNDE_IM_PARK":"Nein","TELEFON":"01 4000 8042","WEBLINK1":"http://www.wien.gv.at/umwelt/parks/anlagen/index.html","SE_ANNO_CAD_DATA":null}},{"type":"Feature","id":"PARKINFOOGD.2899346","geometry":{"type":"Point","coordinates":[16.35120227,48.20747548]},"geometry_name":"SHAPE","properties":{"OBJECTID":2899346,"ANL_NAME":"Elisa-Springer-Park","BEZIRK":8,"FLAECHE":"126 m²","OEFF_ZEITEN":"0:00-24:00","SPIELEN_IM_PARK":"Nein","WASSER_IM_PARK":"Ja","HUNDE_IM_PARK":"Nein","TELEFON":"01 4000 8042","WEBLINK1":"http://www.wien.gv.at/umwelt/parks/anlagen/index.html","SE_ANNO_CAD_DATA":null}},{"type":"Feature","id":"PARKINFOOGD.2899347","geometry":{"type":"Point","coordinates":[16.34539442,48.21107486]},"geometry_name":"SHAPE","properties":{"OBJECTID":2899347,"ANL_NAME":"Hamerlingpark","BEZIRK":8,"FLAECHE":"6.069 m²","OEFF_ZEITEN":"0:00-24:00","SPIELEN_IM_PARK":"Ja","WASSER_IM_PARK":"Ja","HUNDE_IM_PARK":"Nein","TELEFON":"01 4000 8042","WEBLINK1":"http://www.wien.gv.at/umwelt/parks/anlagen/index.html","SE_ANNO_CAD_DATA":null}},{"type":"Feature","id":"PARKINFOOGD.2899348","geometry":{"type":"Point","coordinates":[16.34893946,48.18971665]},"geometry_name":"SHAPE","properties":{"OBJECTID":2899348,"ANL_NAME":"Therese-Sip-Park","BEZIRK":6,"FLAECHE":"369 m²","OEFF_ZEITEN":"0:00-24:00","SPIELEN_IM_PARK":"Nein","WASSER_IM_PARK":"Nein","HUNDE_IM_PARK":"Nein","TELEFON":"01 4000 8042","WEBLINK1":"http://www.wien.gv.at/umwelt/parks/anlagen/index.html","SE_ANNO_CAD_DATA":null}},{"type":"Feature","id":"PARKINFOOGD.2893159","geometry":{"type":"Point","coordinates":[16.30382338,48.14953953]},"geometry_name":"SHAPE","properties":{"OBJECTID":2893159,"ANL_NAME":"PA Josef-Österreicher-Gasse","BEZIRK":23,"FLAECHE":"1.843 m²","OEFF_ZEITEN":"Ballspielkäfig: Mai-Okt. 8:00-20:00, Nov-Apr: keine Sperre","SPIELEN_IM_PARK":"Ja","WASSER_IM_PARK":"Ja","HUNDE_IM_PARK":"Nein","TELEFON":"01 4000 8042","WEBLINK1":"http://www.wien.gv.at/umwelt/parks/anlagen/index.html","SE_ANNO_CAD_DATA":null}},{"type":"Feature","id":"PARKINFOOGD.2893160","geometry":{"type":"Point","coordinates":[16.38487196,48.21320525]},"geometry_name":"SHAPE","properties":{"OBJECTID":2893160,"ANL_NAME":"Veza-Canetti-Park","BEZIRK":2,"FLAECHE":"681 m²","OEFF_ZEITEN":"0:00-24:00","SPIELEN_IM_PARK":"Ja","WASSER_IM_PARK":"Ja","HUNDE_IM_PARK":"Nein","TELEFON":"01 4000 8042","WEBLINK1":"http://www.wien.gv.at/umwelt/parks/anlagen/index.html","SE_ANNO_CAD_DATA":null}},{"type":"Feature","id":"PARKINFOOGD.2893161","geometry":{"type":"Point","coordinates":[16.39525908,48.21882943]},"geometry_name":"SHAPE","properties":{"OBJECTID":2893161,"ANL_NAME":"Venediger-Au-Park","BEZIRK":2,"FLAECHE":"33.212 m²","OEFF_ZEITEN":"0:00-24:00","SPIELEN_IM_PARK":"Ja","WASSER_IM_PARK":"Ja","HUNDE_IM_PARK":"Ja","TELEFON":"01 4000 8042","WEBLINK1":"http://www.wien.gv.at/umwelt/parks/anlagen/index.html","SE_ANNO_CAD_DATA":null}},{"type":"Feature","id":"PARKINFOOGD.2893162","geometry":{"type":"Point","coordinates":[16.39437579,48.23258902]},"geometry_name":"SHAPE","properties":{"OBJECTID":2893162,"ANL_NAME":"PA Holubstraße","BEZIRK":2,"FLAECHE":"7.134 m²","OEFF_ZEITEN":"0:00-24:00","SPIELEN_IM_PARK":"Nein","WASSER_IM_PARK":"Nein","HUNDE_IM_PARK":"Nein","TELEFON":"01 4000 8042","WEBLINK1":"http://www.wien.gv.at/umwelt/parks/anlagen/index.html","SE_ANNO_CAD_DATA":null}},{"type":"Feature","id":"PARKINFOOGD.2893163","geometry":{"type":"Point","coordinates":[16.39231764,48.23285248]},"geometry_name":"SHAPE","properties":{"OBJECTID":2893163,"ANL_NAME":"Therese-Ammon-Park","BEZIRK":2,"FLAECHE":"6.037 m²","OEFF_ZEITEN":"0:00-24:00","SPIELEN_IM_PARK":"Ja","WASSER_IM_PARK":"Ja","HUNDE_IM_PARK":"Nein","TELEFON":"01 4000 8042","WEBLINK1":"http://www.wien.gv.at/umwelt/parks/anlagen/index.html","SE_ANNO_CAD_DATA":null}},{"type":"Feature","id":"PARKINFOOGD.2893164","geometry":{"type":"Point","coordinates":[16.39713542,48.22618132]},"geometry_name":"SHAPE","properties":{"OBJECTID":2893164,"ANL_NAME":"Rudolf-Bednar-Park","BEZIRK":2,"FLAECHE":"31.319 m²","OEFF_ZEITEN":"Skateranlage: 6:30-20:30","SPIELEN_IM_PARK":"Ja","WASSER_IM_PARK":"Ja","HUNDE_IM_PARK":"Ja","TELEFON":"01 4000 8042","WEBLINK1":"http://www.wien.gv.at/umwelt/parks/anlagen/index.html","SE_ANNO_CAD_DATA":null}},{"type":"Feature","id":"PARKINFOOGD.2893165","geometry":{"type":"Point","coordinates":[16.37301736,48.2243107]},"geometry_name":"SHAPE","properties":{"OBJECTID":2893165,"ANL_NAME":"Irma-Schwager-Park","BEZIRK":2,"FLAECHE":"9.383 m²","OEFF_ZEITEN":"0:00-24:00","SPIELEN_IM_PARK":"Nein","WASSER_IM_PARK":"Nein","HUNDE_IM_PARK":"Nein","TELEFON":"01 4000 8042","WEBLINK1":"http://www.wien.gv.at/umwelt/parks/anlagen/index.html","SE_ANNO_CAD_DATA":null}},{"type":"Feature","id":"PARKINFOOGD.2893166","geometry":{"type":"Point","coordinates":[16.4001694,48.22015665]},"geometry_name":"SHAPE","properties":{"OBJECTID":2893166,"ANL_NAME":"Max-Winter-Park","BEZIRK":2,"FLAECHE":"9.852 m²","OEFF_ZEITEN":"Apr.-Sept.:06:30-21:30(20:30 an Sa,So,FT),Okt.-März:05:30-21:30(20:30 an Sa,So,FT)","SPIELEN_IM_PARK":"Ja","WASSER_IM_PARK":"Ja","HUNDE_IM_PARK":"Nein","TELEFON":"01 4000 8042","WEBLINK1":"http://www.wien.gv.at/umwelt/parks/anlagen/index.html","SE_ANNO_CAD_DATA":null}},{"type":"Feature","id":"PARKINFOOGD.2893167","geometry":{"type":"Point","coordinates":[16.35769158,48.18643513]},"geometry_name":"SHAPE","properties":{"OBJECTID":2893167,"ANL_NAME":"PA Siebenbrunnengasse","BEZIRK":5,"FLAECHE":"1.699 m²","OEFF_ZEITEN":"6:15-21:00","SPIELEN_IM_PARK":"Nein","WASSER_IM_PARK":"Nein","HUNDE_IM_PARK":"Nein","TELEFON":"01 4000 8042","WEBLINK1":"http://www.wien.gv.at/umwelt/parks/anlagen/index.html","SE_ANNO_CAD_DATA":null}},{"type":"Feature","id":"PARKINFOOGD.2893168","geometry":{"type":"Point","coordinates":[16.35436154,48.18960432]},"geometry_name":"SHAPE","properties":{"OBJECTID":2893168,"ANL_NAME":"Scheupark","BEZIRK":5,"FLAECHE":"3.132 m²","OEFF_ZEITEN":"6:15-21:30","SPIELEN_IM_PARK":"Ja","WASSER_IM_PARK":"Ja","HUNDE_IM_PARK":"Nein","TELEFON":"01 4000 8042","WEBLINK1":"http://www.wien.gv.at/umwelt/parks/anlagen/index.html","SE_ANNO_CAD_DATA":null}},{"type":"Feature","id":"PARKINFOOGD.2893169","geometry":{"type":"Point","coordinates":[16.36308513,48.1878207]},"geometry_name":"SHAPE","properties":{"OBJECTID":2893169,"ANL_NAME":"Rudolf-Sallinger-Park","BEZIRK":5,"FLAECHE":"4.919 m²","OEFF_ZEITEN":"Ballspielplatz+Hundezone: 6:45-21:30","SPIELEN_IM_PARK":"Ja","WASSER_IM_PARK":"Ja","HUNDE_IM_PARK":"Ja","TELEFON":"01 4000 8042","WEBLINK1":"http://www.wien.gv.at/umwelt/parks/anlagen/index.html","SE_ANNO_CAD_DATA":null}},{"type":"Feature","id":"PARKINFOOGD.2893170","geometry":{"type":"Point","coordinates":[16.35531672,48.18123567]},"geometry_name":"SHAPE","properties":{"OBJECTID":2893170,"ANL_NAME":"PA Leopold-Rister-Gasse","BEZIRK":5,"FLAECHE":"4.748 m²","OEFF_ZEITEN":"Ballspielkäfig+Hundezone:6:45-22:00","SPIELEN_IM_PARK":"Ja","WASSER_IM_PARK":"Ja","HUNDE_IM_PARK":"Nein","TELEFON":"01 4000 8042","WEBLINK1":"http://www.wien.gv.at/umwelt/parks/anlagen/index.html","SE_ANNO_CAD_DATA":null}},{"type":"Feature","id":"PARKINFOOGD.2893171","geometry":{"type":"Point","coordinates":[16.35082145,48.1828989]},"geometry_name":"SHAPE","properties":{"OBJECTID":2893171,"ANL_NAME":"Ernst-Lichtblau-Park","BEZIRK":5,"FLAECHE":"2.438 m²","OEFF_ZEITEN":"Ballspielkäfig: 6:45-21:30","SPIELEN_IM_PARK":"Ja","WASSER_IM_PARK":"Ja","HUNDE_IM_PARK":"Nein","TELEFON":"01 4000 8042","WEBLINK1":"http://www.wien.gv.at/umwelt/parks/anlagen/index.html","SE_ANNO_CAD_DATA":null}},{"type":"Feature","id":"PARKINFOOGD.2893172","geometry":{"type":"Point","coordinates":[16.35458261,48.1941582]},"geometry_name":"SHAPE","properties":{"OBJECTID":2893172,"ANL_NAME":"Ernst-Arnold-Park","BEZIRK":5,"FLAECHE":"3.788 m²","OEFF_ZEITEN":"0:00-24:00","SPIELEN_IM_PARK":"Nein","WASSER_IM_PARK":"Nein","HUNDE_IM_PARK":"Nein","TELEFON":"01 4000 8042","WEBLINK1":"http://www.wien.gv.at/umwelt/parks/anlagen/index.html","SE_ANNO_CAD_DATA":null}},{"type":"Feature","id":"PARKINFOOGD.2893173","geometry":{"type":"Point","coordinates":[16.35001162,48.18586706]},"geometry_name":"SHAPE","properties":{"OBJECTID":2893173,"ANL_NAME":"Einsiedlerpark","BEZIRK":5,"FLAECHE":"6.359 m²","OEFF_ZEITEN":"Hundezone: 6:15-21:45","SPIELEN_IM_PARK":"Ja","WASSER_IM_PARK":"Ja","HUNDE_IM_PARK":"Nein","TELEFON":"01 4000 8042","WEBLINK1":"http://www.wien.gv.at/umwelt/parks/anlagen/index.html","SE_ANNO_CAD_DATA":null}},{"type":"Feature","id":"PARKINFOOGD.2899349","geometry":{"type":"Point","coordinates":[16.35231865,48.19364774]},"geometry_name":"SHAPE","properties":{"OBJECTID":2899349,"ANL_NAME":"Richard-Waldemar-Park","BEZIRK":6,"FLAECHE":"1.838 m²","OEFF_ZEITEN":"Ballspielkäfig: Okt-März: 7:00-20:30, Apr-Sep: 7:00-22:00","SPIELEN_IM_PARK":"Ja","WASSER_IM_PARK":"Nein","HUNDE_IM_PARK":"Nein","TELEFON":"01 4000 8042","WEBLINK1":"http://www.wien.gv.at/umwelt/parks/anlagen/index.html","SE_ANNO_CAD_DATA":null}},{"type":"Feature","id":"PARKINFOOGD.2899350","geometry":{"type":"Point","coordinates":[16.34838668,48.19500789]},"geometry_name":"SHAPE","properties":{"OBJECTID":2899350,"ANL_NAME":"Schmalzhoftempelpark","BEZIRK":6,"FLAECHE":"5.132 m²","OEFF_ZEITEN":"Okt-März: 7:45-20:45, Apr-Sep: 7:45-21:00","SPIELEN_IM_PARK":"Ja","WASSER_IM_PARK":"Ja","HUNDE_IM_PARK":"Nein","TELEFON":"01 4000 8042","WEBLINK1":"http://www.wien.gv.at/umwelt/parks/anlagen/index.html","SE_ANNO_CAD_DATA":null}},{"type":"Feature","id":"PARKINFOOGD.2899351","geometry":{"type":"Point","coordinates":[16.36432087,48.15205169]},"geometry_name":"SHAPE","properties":{"OBJECTID":2899351,"ANL_NAME":"PA Laxenburger Straße","BEZIRK":10,"FLAECHE":"35.776 m²","OEFF_ZEITEN":"0:00-24:00","SPIELEN_IM_PARK":"Ja","WASSER_IM_PARK":"Nein","HUNDE_IM_PARK":"Nein","TELEFON":"01 4000 8042","WEBLINK1":"http://www.wien.gv.at/umwelt/parks/anlagen/index.html","SE_ANNO_CAD_DATA":null}},{"type":"Feature","id":"PARKINFOOGD.2899352","geometry":{"type":"Point","coordinates":[16.39444283,48.1718085]},"geometry_name":"SHAPE","properties":{"OBJECTID":2899352,"ANL_NAME":"PA Quellenstraße","BEZIRK":10,"FLAECHE":"5.822 m²","OEFF_ZEITEN":"0:00-24:00","SPIELEN_IM_PARK":"Ja","WASSER_IM_PARK":"Ja","HUNDE_IM_PARK":"Nein","TELEFON":"01 4000 8042","WEBLINK1":"http://www.wien.gv.at/umwelt/parks/anlagen/index.html","SE_ANNO_CAD_DATA":null}},{"type":"Feature","id":"PARKINFOOGD.2899353","geometry":{"type":"Point","coordinates":[16.36624076,48.16148472]},"geometry_name":"SHAPE","properties":{"OBJECTID":2899353,"ANL_NAME":"PA Kornauthgasse","BEZIRK":10,"FLAECHE":"3.102 m²","OEFF_ZEITEN":"0:00-24:00","SPIELEN_IM_PARK":"Ja","WASSER_IM_PARK":"Nein","HUNDE_IM_PARK":"Nein","TELEFON":"01 4000 8042","WEBLINK1":"http://www.wien.gv.at/umwelt/parks/anlagen/index.html","SE_ANNO_CAD_DATA":null}},{"type":"Feature","id":"PARKINFOOGD.2899354","geometry":{"type":"Point","coordinates":[16.37577551,48.17837384]},"geometry_name":"SHAPE","properties":{"OBJECTID":2899354,"ANL_NAME":"PA Keplerplatz","BEZIRK":10,"FLAECHE":"5.658 m²","OEFF_ZEITEN":"Hundezone:06:00-21:00","SPIELEN_IM_PARK":"Ja","WASSER_IM_PARK":"Ja","HUNDE_IM_PARK":"Nein","TELEFON":"01 4000 8042","WEBLINK1":"http://www.wien.gv.at/umwelt/parks/anlagen/index.html","SE_ANNO_CAD_DATA":null}},{"type":"Feature","id":"PARKINFOOGD.2899355","geometry":{"type":"Point","coordinates":[16.35306747,48.15322326]},"geometry_name":"SHAPE","properties":{"OBJECTID":2899355,"ANL_NAME":"Johann-Benda-Park","BEZIRK":10,"FLAECHE":"52.838 m²","OEFF_ZEITEN":"0:00-24:00","SPIELEN_IM_PARK":"Ja","WASSER_IM_PARK":"Ja","HUNDE_IM_PARK":"Ja","TELEFON":"01 4000 8042","WEBLINK1":"http://www.wien.gv.at/umwelt/parks/anlagen/index.html","SE_ANNO_CAD_DATA":null}},{"type":"Feature","id":"PARKINFOOGD.2899356","geometry":{"type":"Point","coordinates":[16.39241503,48.14018435]},"geometry_name":"SHAPE","properties":{"OBJECTID":2899356,"ANL_NAME":"Hubert-Blamauer-Park","BEZIRK":10,"FLAECHE":"7.883 m²","OEFF_ZEITEN":"Ballspielkäfig:06:00-21:00","SPIELEN_IM_PARK":"Ja","WASSER_IM_PARK":"Ja","HUNDE_IM_PARK":"Nein","TELEFON":"01 4000 8042","WEBLINK1":"http://www.wien.gv.at/umwelt/parks/anlagen/index.html","SE_ANNO_CAD_DATA":null}},{"type":"Feature","id":"PARKINFOOGD.2899357","geometry":{"type":"Point","coordinates":[16.39426939,48.15451889]},"geometry_name":"SHAPE","properties":{"OBJECTID":2899357,"ANL_NAME":"PA Holzknechtstraße","BEZIRK":10,"FLAECHE":"2.125 m²","OEFF_ZEITEN":"06:00-21:00","SPIELEN_IM_PARK":"Ja","WASSER_IM_PARK":"Ja","HUNDE_IM_PARK":"Nein","TELEFON":"01 4000 8042","WEBLINK1":"http://www.wien.gv.at/umwelt/parks/anlagen/index.html","SE_ANNO_CAD_DATA":null}},{"type":"Feature","id":"PARKINFOOGD.2899358","geometry":{"type":"Point","coordinates":[16.3775271,48.15618212]},"geometry_name":"SHAPE","properties":{"OBJECTID":2899358,"ANL_NAME":"PA Holeyplatz","BEZIRK":10,"FLAECHE":"2.073 m²","OEFF_ZEITEN":"0:00-24:00","SPIELEN_IM_PARK":"Nein","WASSER_IM_PARK":"Nein","HUNDE_IM_PARK":"Nein","TELEFON":"01 4000 8042","WEBLINK1":"http://www.wien.gv.at/umwelt/parks/anlagen/index.html","SE_ANNO_CAD_DATA":null}},{"type":"Feature","id":"PARKINFOOGD.2899359","geometry":{"type":"Point","coordinates":[16.37779624,48.15856794]},"geometry_name":"SHAPE","properties":{"OBJECTID":2899359,"ANL_NAME":"PA Saligergasse","BEZIRK":10,"FLAECHE":"32.352 m²","OEFF_ZEITEN":"0:00-24:00","SPIELEN_IM_PARK":"Nein","WASSER_IM_PARK":"Nein","HUNDE_IM_PARK":"Nein","TELEFON":"01 4000 8042","WEBLINK1":"http://www.wien.gv.at/umwelt/parks/anlagen/index.html","SE_ANNO_CAD_DATA":null}},{"type":"Feature","id":"PARKINFOOGD.2899360","geometry":{"type":"Point","coordinates":[16.35871066,48.17792218]},"geometry_name":"SHAPE","properties":{"OBJECTID":2899360,"ANL_NAME":"PA Knöllgasse","BEZIRK":10,"FLAECHE":"2.563 m²","OEFF_ZEITEN":"0:00-24:00","SPIELEN_IM_PARK":"Ja","WASSER_IM_PARK":"Nein","HUNDE_IM_PARK":"Nein","TELEFON":"01 4000 8042","WEBLINK1":"http://www.wien.gv.at/umwelt/parks/anlagen/index.html","SE_ANNO_CAD_DATA":null}},{"type":"Feature","id":"PARKINFOOGD.2899361","geometry":{"type":"Point","coordinates":[16.38106237,48.15472337]},"geometry_name":"SHAPE","properties":{"OBJECTID":2899361,"ANL_NAME":"PA Fingergasse","BEZIRK":10,"FLAECHE":"7.428 m²","OEFF_ZEITEN":"0:00-24:00","SPIELEN_IM_PARK":"Ja","WASSER_IM_PARK":"Ja","HUNDE_IM_PARK":"Nein","TELEFON":"01 4000 8042","WEBLINK1":"http://www.wien.gv.at/umwelt/parks/anlagen/index.html","SE_ANNO_CAD_DATA":null}},{"type":"Feature","id":"PARKINFOOGD.2899362","geometry":{"type":"Point","coordinates":[16.36888003,48.17794725]},"geometry_name":"SHAPE","properties":{"OBJECTID":2899362,"ANL_NAME":"PA Erlachplatz","BEZIRK":10,"FLAECHE":"4.467 m²","OEFF_ZEITEN":"0:00-24:00","SPIELEN_IM_PARK":"Ja","WASSER_IM_PARK":"Ja","HUNDE_IM_PARK":"Nein","TELEFON":"01 4000 8042","WEBLINK1":"http://www.wien.gv.at/umwelt/parks/anlagen/index.html","SE_ANNO_CAD_DATA":null}},{"type":"Feature","id":"PARKINFOOGD.2899363","geometry":{"type":"Point","coordinates":[16.38845685,48.14879928]},"geometry_name":"SHAPE","properties":{"OBJECTID":2899363,"ANL_NAME":"PA Bergtaidingweg","BEZIRK":10,"FLAECHE":"16.622 m²","OEFF_ZEITEN":"0:00-24:00","SPIELEN_IM_PARK":"Ja","WASSER_IM_PARK":"Ja","HUNDE_IM_PARK":"Nein","TELEFON":"01 4000 8042","WEBLINK1":"http://www.wien.gv.at/umwelt/parks/anlagen/index.html","SE_ANNO_CAD_DATA":null}},{"type":"Feature","id":"PARKINFOOGD.2899364","geometry":{"type":"Point","coordinates":[16.36032596,48.17687744]},"geometry_name":"SHAPE","properties":{"OBJECTID":2899364,"ANL_NAME":"Alois-Greb-Park","BEZIRK":10,"FLAECHE":"4.959 m²","OEFF_ZEITEN":"0:00-24:00","SPIELEN_IM_PARK":"Ja","WASSER_IM_PARK":"Ja","HUNDE_IM_PARK":"Nein","TELEFON":"01 4000 8042","WEBLINK1":"http://www.wien.gv.at/umwelt/parks/anlagen/index.html","SE_ANNO_CAD_DATA":null}},{"type":"Feature","id":"PARKINFOOGD.2899365","geometry":{"type":"Point","coordinates":[16.41532454,48.17942435]},"geometry_name":"SHAPE","properties":{"OBJECTID":2899365,"ANL_NAME":"PA Eisteichstraße","BEZIRK":11,"FLAECHE":"3.855 m²","OEFF_ZEITEN":"0:00-24:00","SPIELEN_IM_PARK":"Ja","WASSER_IM_PARK":"Ja","HUNDE_IM_PARK":"Nein","TELEFON":"01 4000 8042","WEBLINK1":"http://www.wien.gv.at/umwelt/parks/anlagen/index.html","SE_ANNO_CAD_DATA":null}},{"type":"Feature","id":"PARKINFOOGD.2899366","geometry":{"type":"Point","coordinates":[16.41055837,48.17477107]},"geometry_name":"SHAPE","properties":{"OBJECTID":2899366,"ANL_NAME":"PA Drischützgasse","BEZIRK":11,"FLAECHE":"771 m²","OEFF_ZEITEN":"0:00-24:00","SPIELEN_IM_PARK":"Nein","WASSER_IM_PARK":"Nein","HUNDE_IM_PARK":"Nein","TELEFON":"01 4000 8042","WEBLINK1":"http://www.wien.gv.at/umwelt/parks/anlagen/index.html","SE_ANNO_CAD_DATA":null}},{"type":"Feature","id":"PARKINFOOGD.2899367","geometry":{"type":"Point","coordinates":[16.40596565,48.17569233]},"geometry_name":"SHAPE","properties":{"OBJECTID":2899367,"ANL_NAME":"Brehmpark","BEZIRK":11,"FLAECHE":"799 m²","OEFF_ZEITEN":"0:00-24:00","SPIELEN_IM_PARK":"Nein","WASSER_IM_PARK":"Ja","HUNDE_IM_PARK":"Nein","TELEFON":"01 4000 8042","WEBLINK1":"http://www.wien.gv.at/umwelt/parks/anlagen/index.html","SE_ANNO_CAD_DATA":null}},{"type":"Feature","id":"PARKINFOOGD.2899368","geometry":{"type":"Point","coordinates":[16.41453236,48.17074013]},"geometry_name":"SHAPE","properties":{"OBJECTID":2899368,"ANL_NAME":"Braunhuberpark","BEZIRK":11,"FLAECHE":"4.862 m²","OEFF_ZEITEN":"Hundezone:06:00-20:00","SPIELEN_IM_PARK":"Ja","WASSER_IM_PARK":"Ja","HUNDE_IM_PARK":"Nein","TELEFON":"01 4000 8042","WEBLINK1":"http://www.wien.gv.at/umwelt/parks/anlagen/index.html","SE_ANNO_CAD_DATA":null}},{"type":"Feature","id":"PARKINFOOGD.2899369","geometry":{"type":"Point","coordinates":[16.42492,48.15692589]},"geometry_name":"SHAPE","properties":{"OBJECTID":2899369,"ANL_NAME":"PA Pretschgasse","BEZIRK":11,"FLAECHE":"6.311 m²","OEFF_ZEITEN":"0:00-24:00","SPIELEN_IM_PARK":"Ja","WASSER_IM_PARK":"Ja","HUNDE_IM_PARK":"Ja","TELEFON":"01 4000 8042","WEBLINK1":"http://www.wien.gv.at/umwelt/parks/anlagen/index.html","SE_ANNO_CAD_DATA":null}},{"type":"Feature","id":"PARKINFOOGD.2899370","geometry":{"type":"Point","coordinates":[16.41791139,48.16735608]},"geometry_name":"SHAPE","properties":{"OBJECTID":2899370,"ANL_NAME":"PA Albin-Hirsch-Platz","BEZIRK":11,"FLAECHE":"3.229 m²","OEFF_ZEITEN":"0:00-24:00","SPIELEN_IM_PARK":"Nein","WASSER_IM_PARK":"Ja","HUNDE_IM_PARK":"Nein","TELEFON":"01 4000 8042","WEBLINK1":"http://www.wien.gv.at/umwelt/parks/anlagen/index.html","SE_ANNO_CAD_DATA":null}},{"type":"Feature","id":"PARKINFOOGD.2899371","geometry":{"type":"Point","coordinates":[16.48525226,48.1596936]},"geometry_name":"SHAPE","properties":{"OBJECTID":2899371,"ANL_NAME":"PA Mannswörther Straße","BEZIRK":11,"FLAECHE":"1.936 m²","OEFF_ZEITEN":"0:00-24:00","SPIELEN_IM_PARK":"Ja","WASSER_IM_PARK":"Ja","HUNDE_IM_PARK":"Nein","TELEFON":"01 4000 8042","WEBLINK1":"http://www.wien.gv.at/umwelt/parks/anlagen/index.html","SE_ANNO_CAD_DATA":null}},{"type":"Feature","id":"PARKINFOOGD.2899372","geometry":{"type":"Point","coordinates":[16.38193842,48.1700393]},"geometry_name":"SHAPE","properties":{"OBJECTID":2899372,"ANL_NAME":"PA Wieselburger Gasse","BEZIRK":10,"FLAECHE":"2.801 m²","OEFF_ZEITEN":"0:00-24:00","SPIELEN_IM_PARK":"Nein","WASSER_IM_PARK":"Ja","HUNDE_IM_PARK":"Nein","TELEFON":"01 4000 8042","WEBLINK1":"http://www.wien.gv.at/umwelt/parks/anlagen/index.html","SE_ANNO_CAD_DATA":null}},{"type":"Feature","id":"PARKINFOOGD.2899373","geometry":{"type":"Point","coordinates":[16.35973909,48.15263884]},"geometry_name":"SHAPE","properties":{"OBJECTID":2899373,"ANL_NAME":"PA Wienerfeldsiedlung","BEZIRK":10,"FLAECHE":"16.179 m²","OEFF_ZEITEN":"0:00-24:00","SPIELEN_IM_PARK":"Ja","WASSER_IM_PARK":"Nein","HUNDE_IM_PARK":"Nein","TELEFON":"01 4000 8042","WEBLINK1":"http://www.wien.gv.at/umwelt/parks/anlagen/index.html","SE_ANNO_CAD_DATA":null}},{"type":"Feature","id":"PARKINFOOGD.2899374","geometry":{"type":"Point","coordinates":[16.37960181,48.17652648]},"geometry_name":"SHAPE","properties":{"OBJECTID":2899374,"ANL_NAME":"PA Wielandplatz","BEZIRK":10,"FLAECHE":"4.413 m²","OEFF_ZEITEN":"6:00-21:00","SPIELEN_IM_PARK":"Ja","WASSER_IM_PARK":"Ja","HUNDE_IM_PARK":"Nein","TELEFON":"01 4000 8042","WEBLINK1":"http://www.wien.gv.at/umwelt/parks/anlagen/index.html","SE_ANNO_CAD_DATA":null}},{"type":"Feature","id":"PARKINFOOGD.2899375","geometry":{"type":"Point","coordinates":[16.38005019,48.17802112]},"geometry_name":"SHAPE","properties":{"OBJECTID":2899375,"ANL_NAME":"PA Sonnwendgasse","BEZIRK":10,"FLAECHE":"847 m²","OEFF_ZEITEN":"0:00-24:00","SPIELEN_IM_PARK":"Nein","WASSER_IM_PARK":"Nein","HUNDE_IM_PARK":"Nein","TELEFON":"01 4000 8042","WEBLINK1":"http://www.wien.gv.at/umwelt/parks/anlagen/index.html","SE_ANNO_CAD_DATA":null}},{"type":"Feature","id":"PARKINFOOGD.2899376","geometry":{"type":"Point","coordinates":[16.37920582,48.15254188]},"geometry_name":"SHAPE","properties":{"OBJECTID":2899376,"ANL_NAME":"PA Rädda-Barnen-Platz","BEZIRK":10,"FLAECHE":"908 m²","OEFF_ZEITEN":"0:00-24:00","SPIELEN_IM_PARK":"Ja","WASSER_IM_PARK":"Nein","HUNDE_IM_PARK":"Nein","TELEFON":"01 4000 8042","WEBLINK1":"http://www.wien.gv.at/umwelt/parks/anlagen/index.html","SE_ANNO_CAD_DATA":null}},{"type":"Feature","id":"PARKINFOOGD.2899377","geometry":{"type":"Point","coordinates":[16.39014675,48.15835217]},"geometry_name":"SHAPE","properties":{"OBJECTID":2899377,"ANL_NAME":"PA Endlichergasse","BEZIRK":10,"FLAECHE":"22.087 m²","OEFF_ZEITEN":"0:00-24:00","SPIELEN_IM_PARK":"Ja","WASSER_IM_PARK":"Nein","HUNDE_IM_PARK":"Nein","TELEFON":"01 4000 8042","WEBLINK1":"http://www.wien.gv.at/umwelt/parks/anlagen/index.html","SE_ANNO_CAD_DATA":null}},{"type":"Feature","id":"PARKINFOOGD.2899378","geometry":{"type":"Point","coordinates":[16.36562024,48.16598389]},"geometry_name":"SHAPE","properties":{"OBJECTID":2899378,"ANL_NAME":"PA Rudolfshügelgasse","BEZIRK":10,"FLAECHE":"3.301 m²","OEFF_ZEITEN":"Ballspielkäfig+Spielplatz: 6:00-21:00","SPIELEN_IM_PARK":"Ja","WASSER_IM_PARK":"Ja","HUNDE_IM_PARK":"Nein","TELEFON":"01 4000 8042","WEBLINK1":"http://www.wien.gv.at/umwelt/parks/anlagen/index.html","SE_ANNO_CAD_DATA":null}},{"type":"Feature","id":"PARKINFOOGD.2899379","geometry":{"type":"Point","coordinates":[16.38614565,48.1724037]},"geometry_name":"SHAPE","properties":{"OBJECTID":2899379,"ANL_NAME":"Puchsbaumpark","BEZIRK":10,"FLAECHE":"5.704 m²","OEFF_ZEITEN":"Ballspielplatz 6:00-21:00","SPIELEN_IM_PARK":"Ja","WASSER_IM_PARK":"Ja","HUNDE_IM_PARK":"Nein","TELEFON":"01 4000 8042","WEBLINK1":"http://www.wien.gv.at/umwelt/parks/anlagen/index.html","SE_ANNO_CAD_DATA":null}},{"type":"Feature","id":"PARKINFOOGD.2899380","geometry":{"type":"Point","coordinates":[16.3874975,48.14573848]},"geometry_name":"SHAPE","properties":{"OBJECTID":2899380,"ANL_NAME":"PA Ada-Christen-Gasse","BEZIRK":10,"FLAECHE":"22.497 m²","OEFF_ZEITEN":"0:00-24:00","SPIELEN_IM_PARK":"Ja","WASSER_IM_PARK":"Ja","HUNDE_IM_PARK":"Nein","TELEFON":"01 4000 8042","WEBLINK1":"http://www.wien.gv.at/umwelt/parks/anlagen/index.html","SE_ANNO_CAD_DATA":null}},{"type":"Feature","id":"PARKINFOOGD.2899481","geometry":{"type":"Point","coordinates":[16.40548914,48.21690754]},"geometry_name":"SHAPE","properties":{"OBJECTID":2899481,"ANL_NAME":"Wolfgang-Kössner-Park","BEZIRK":2,"FLAECHE":"5.987 m²","OEFF_ZEITEN":"6:30-20:30","SPIELEN_IM_PARK":"Ja","WASSER_IM_PARK":"Ja","HUNDE_IM_PARK":"Nein","TELEFON":"01 4000 8042","WEBLINK1":"http://www.wien.gv.at/umwelt/parks/anlagen/index.html","SE_ANNO_CAD_DATA":null}},{"type":"Feature","id":"PARKINFOOGD.2899482","geometry":{"type":"Point","coordinates":[16.35617479,48.20734166]},"geometry_name":"SHAPE","properties":{"OBJECTID":2899482,"ANL_NAME":"PA Schmerlingplatz","BEZIRK":1,"FLAECHE":"3.391 m²","OEFF_ZEITEN":"0:00-24:00","SPIELEN_IM_PARK":"Nein","WASSER_IM_PARK":"Ja","HUNDE_IM_PARK":"Nein","TELEFON":"01 4000 8042","WEBLINK1":"http://www.wien.gv.at/umwelt/parks/anlagen/index.html","SE_ANNO_CAD_DATA":null}},{"type":"Feature","id":"PARKINFOOGD.2899483","geometry":{"type":"Point","coordinates":[16.45563264,48.25284883]},"geometry_name":"SHAPE","properties":{"OBJECTID":2899483,"ANL_NAME":"PA Ernst-Jandl-Weg","BEZIRK":22,"FLAECHE":"4.097 m²","OEFF_ZEITEN":"0:00-24:00","SPIELEN_IM_PARK":"Ja","WASSER_IM_PARK":"Nein","HUNDE_IM_PARK":"Nein","TELEFON":"01 4000 8042","WEBLINK1":"http://www.wien.gv.at/umwelt/parks/anlagen/index.html","SE_ANNO_CAD_DATA":null}},{"type":"Feature","id":"PARKINFOOGD.2899484","geometry":{"type":"Point","coordinates":[16.4614629,48.26233215]},"geometry_name":"SHAPE","properties":{"OBJECTID":2899484,"ANL_NAME":"PA Rautenweg","BEZIRK":22,"FLAECHE":"1.018 m²","OEFF_ZEITEN":"0:00-24:00","SPIELEN_IM_PARK":"Nein","WASSER_IM_PARK":"Nein","HUNDE_IM_PARK":"Nein","TELEFON":"01 4000 8042","WEBLINK1":"http://www.wien.gv.at/umwelt/parks/anlagen/index.html","SE_ANNO_CAD_DATA":null}},{"type":"Feature","id":"PARKINFOOGD.2899485","geometry":{"type":"Point","coordinates":[16.40266479,48.24781758]},"geometry_name":"SHAPE","properties":{"OBJECTID":2899485,"ANL_NAME":"PA Angeliwiese","BEZIRK":21,"FLAECHE":"14.106 m²","OEFF_ZEITEN":"0:00-24:00","SPIELEN_IM_PARK":"Ja","WASSER_IM_PARK":"Ja","HUNDE_IM_PARK":"Nein","TELEFON":"01 4000 8042","WEBLINK1":"http://www.wien.gv.at/umwelt/parks/anlagen/index.html","SE_ANNO_CAD_DATA":null}},{"type":"Feature","id":"PARKINFOOGD.2899486","geometry":{"type":"Point","coordinates":[16.32953974,48.21636919]},"geometry_name":"SHAPE","properties":{"OBJECTID":2899486,"ANL_NAME":"Adelheid-Popp-Park","BEZIRK":17,"FLAECHE":"1.367 m²","OEFF_ZEITEN":"0:00-24:00","SPIELEN_IM_PARK":"Nein","WASSER_IM_PARK":"Ja","HUNDE_IM_PARK":"Nein","TELEFON":"01 4000 8042","WEBLINK1":"http://www.wien.gv.at/umwelt/parks/anlagen/index.html","SE_ANNO_CAD_DATA":null}},{"type":"Feature","id":"PARKINFOOGD.2899487","geometry":{"type":"Point","coordinates":[16.38478821,48.20071922]},"geometry_name":"SHAPE","properties":{"OBJECTID":2899487,"ANL_NAME":"GA Linke Bahngasse","BEZIRK":3,"FLAECHE":"2.610 m²","OEFF_ZEITEN":"Hundezone: 6:00-23:00","SPIELEN_IM_PARK":"Nein","WASSER_IM_PARK":"Nein","HUNDE_IM_PARK":"Nein","TELEFON":"01 4000 8042","WEBLINK1":"http://www.wien.gv.at/umwelt/parks/anlagen/index.html","SE_ANNO_CAD_DATA":null}},{"type":"Feature","id":"PARKINFOOGD.2899488","geometry":{"type":"Point","coordinates":[16.27518321,48.13724755]},"geometry_name":"SHAPE","properties":{"OBJECTID":2899488,"ANL_NAME":"Herbert-Mayr-Park","BEZIRK":23,"FLAECHE":"6.993 m²","OEFF_ZEITEN":"0:00-24:00","SPIELEN_IM_PARK":"Ja","WASSER_IM_PARK":"Ja","HUNDE_IM_PARK":"Nein","TELEFON":"01 4000 8042","WEBLINK1":"http://www.wien.gv.at/umwelt/parks/anlagen/index.html","SE_ANNO_CAD_DATA":null}},{"type":"Feature","id":"PARKINFOOGD.2899489","geometry":{"type":"Point","coordinates":[16.38566523,48.2697842]},"geometry_name":"SHAPE","properties":{"OBJECTID":2899489,"ANL_NAME":"PA Lorettoplatz","BEZIRK":21,"FLAECHE":"417 m²","OEFF_ZEITEN":"0:00-24:00","SPIELEN_IM_PARK":"Nein","WASSER_IM_PARK":"Nein","HUNDE_IM_PARK":"Nein","TELEFON":"01 4000 8042","WEBLINK1":"http://www.wien.gv.at/umwelt/parks/anlagen/index.html","SE_ANNO_CAD_DATA":null}},{"type":"Feature","id":"PARKINFOOGD.2899490","geometry":{"type":"Point","coordinates":[16.29847425,48.22945866]},"geometry_name":"SHAPE","properties":{"OBJECTID":2899490,"ANL_NAME":"PA Rupertusplatz","BEZIRK":17,"FLAECHE":"1.716 m²","OEFF_ZEITEN":"0:00-24:00","SPIELEN_IM_PARK":"Ja","WASSER_IM_PARK":"Nein","HUNDE_IM_PARK":"Nein","TELEFON":"01 4000 8042","WEBLINK1":"http://www.wien.gv.at/umwelt/parks/anlagen/index.html","SE_ANNO_CAD_DATA":null}},{"type":"Feature","id":"PARKINFOOGD.2899491","geometry":{"type":"Point","coordinates":[16.29053773,48.15895089]},"geometry_name":"SHAPE","properties":{"OBJECTID":2899491,"ANL_NAME":"PA Schluckergasse","BEZIRK":13,"FLAECHE":"12.235 m²","OEFF_ZEITEN":"0:00-24:00","SPIELEN_IM_PARK":"Ja","WASSER_IM_PARK":"Ja","HUNDE_IM_PARK":"Nein","TELEFON":"01 4000 8042","WEBLINK1":"http://www.wien.gv.at/umwelt/parks/anlagen/index.html","SE_ANNO_CAD_DATA":null}},{"type":"Feature","id":"PARKINFOOGD.2899492","geometry":{"type":"Point","coordinates":[16.3889418,48.20248078]},"geometry_name":"SHAPE","properties":{"OBJECTID":2899492,"ANL_NAME":"Friedrich-Gulda-Park","BEZIRK":3,"FLAECHE":"1.074 m²","OEFF_ZEITEN":"6:00-21:30","SPIELEN_IM_PARK":"Ja","WASSER_IM_PARK":"Ja","HUNDE_IM_PARK":"Nein","TELEFON":"01 4000 8042","WEBLINK1":"http://www.wien.gv.at/umwelt/parks/anlagen/index.html","SE_ANNO_CAD_DATA":null}},{"type":"Feature","id":"PARKINFOOGD.2899493","geometry":{"type":"Point","coordinates":[16.44162081,48.24523542]},"geometry_name":"SHAPE","properties":{"OBJECTID":2899493,"ANL_NAME":"Jakob-Rosenfeld-Park","BEZIRK":22,"FLAECHE":"1.891 m²","OEFF_ZEITEN":"0:00-24:00","SPIELEN_IM_PARK":"Ja","WASSER_IM_PARK":"Ja","HUNDE_IM_PARK":"Nein","TELEFON":"01 4000 8042","WEBLINK1":"http://www.wien.gv.at/umwelt/parks/anlagen/index.html","SE_ANNO_CAD_DATA":null}},{"type":"Feature","id":"PARKINFOOGD.2899494","geometry":{"type":"Point","coordinates":[16.31950707,48.15731836]},"geometry_name":"SHAPE","properties":{"OBJECTID":2899494,"ANL_NAME":"PA Altmannsdorfer Straße","BEZIRK":12,"FLAECHE":"2.186 m²","OEFF_ZEITEN":"0:00-24:00","SPIELEN_IM_PARK":"Nein","WASSER_IM_PARK":"Nein","HUNDE_IM_PARK":"Nein","TELEFON":"01 4000 8042","WEBLINK1":"http://www.wien.gv.at/umwelt/parks/anlagen/index.html","SE_ANNO_CAD_DATA":null}},{"type":"Feature","id":"PARKINFOOGD.2899495","geometry":{"type":"Point","coordinates":[16.46090422,48.15352027]},"geometry_name":"SHAPE","properties":{"OBJECTID":2899495,"ANL_NAME":"PA Am Leberberg","BEZIRK":11,"FLAECHE":"26.980 m²","OEFF_ZEITEN":"0:00-24:00","SPIELEN_IM_PARK":"Ja","WASSER_IM_PARK":"Ja","HUNDE_IM_PARK":"Nein","TELEFON":"01 4000 8042","WEBLINK1":"http://www.wien.gv.at/umwelt/parks/anlagen/index.html","SE_ANNO_CAD_DATA":null}},{"type":"Feature","id":"PARKINFOOGD.2899496","geometry":{"type":"Point","coordinates":[16.41542427,48.1809774]},"geometry_name":"SHAPE","properties":{"OBJECTID":2899496,"ANL_NAME":"PA Fuchsröhrenstraße","BEZIRK":11,"FLAECHE":"928 m²","OEFF_ZEITEN":"0:00-24:00","SPIELEN_IM_PARK":"Ja","WASSER_IM_PARK":"Ja","HUNDE_IM_PARK":"Nein","TELEFON":"01 4000 8042","WEBLINK1":"http://www.wien.gv.at/umwelt/parks/anlagen/index.html","SE_ANNO_CAD_DATA":null}},{"type":"Feature","id":"PARKINFOOGD.2899497","geometry":{"type":"Point","coordinates":[16.42989287,48.16877198]},"geometry_name":"SHAPE","properties":{"OBJECTID":2899497,"ANL_NAME":"PA Blériotgasse","BEZIRK":11,"FLAECHE":"17.172 m²","OEFF_ZEITEN":"Hundezone:06:00-20:00","SPIELEN_IM_PARK":"Ja","WASSER_IM_PARK":"Ja","HUNDE_IM_PARK":"Ja","TELEFON":"01 4000 8042","WEBLINK1":"http://www.wien.gv.at/umwelt/parks/anlagen/index.html","SE_ANNO_CAD_DATA":null}},{"type":"Feature","id":"PARKINFOOGD.2899498","geometry":{"type":"Point","coordinates":[16.37557231,48.14867444]},"geometry_name":"SHAPE","properties":{"OBJECTID":2899498,"ANL_NAME":"PA Per-Albin-Hansson-Straße","BEZIRK":10,"FLAECHE":"113.496 m²","OEFF_ZEITEN":"0:00-24:00","SPIELEN_IM_PARK":"Ja","WASSER_IM_PARK":"Nein","HUNDE_IM_PARK":"Nein","TELEFON":"01 4000 8042","WEBLINK1":"http://www.wien.gv.at/umwelt/parks/anlagen/index.html","SE_ANNO_CAD_DATA":null}},{"type":"Feature","id":"PARKINFOOGD.2899499","geometry":{"type":"Point","coordinates":[16.40803672,48.13495526]},"geometry_name":"SHAPE","properties":{"OBJECTID":2899499,"ANL_NAME":"Piratenspielplatz","BEZIRK":10,"FLAECHE":"3.931 m²","OEFF_ZEITEN":"0:00-24:00","SPIELEN_IM_PARK":"Ja","WASSER_IM_PARK":"Ja","HUNDE_IM_PARK":"Nein","TELEFON":"01 4000 8042","WEBLINK1":"http://www.wien.gv.at/umwelt/parks/anlagen/index.html","SE_ANNO_CAD_DATA":null}},{"type":"Feature","id":"PARKINFOOGD.2899500","geometry":{"type":"Point","coordinates":[16.38196907,48.14867425]},"geometry_name":"SHAPE","properties":{"OBJECTID":2899500,"ANL_NAME":"PA Olaus-Petri-Gasse","BEZIRK":10,"FLAECHE":"6.212 m²","OEFF_ZEITEN":"0:00-24:00","SPIELEN_IM_PARK":"Nein","WASSER_IM_PARK":"Nein","HUNDE_IM_PARK":"Nein","TELEFON":"01 4000 8042","WEBLINK1":"http://www.wien.gv.at/umwelt/parks/anlagen/index.html","SE_ANNO_CAD_DATA":null}},{"type":"Feature","id":"PARKINFOOGD.2899501","geometry":{"type":"Point","coordinates":[16.40394452,48.13794432]},"geometry_name":"SHAPE","properties":{"OBJECTID":2899501,"ANL_NAME":"PA Ober-Laaer Platz","BEZIRK":10,"FLAECHE":"2.476 m²","OEFF_ZEITEN":"0:00-24:00","SPIELEN_IM_PARK":"Nein","WASSER_IM_PARK":"Nein","HUNDE_IM_PARK":"Nein","TELEFON":"01 4000 8042","WEBLINK1":"http://www.wien.gv.at/umwelt/parks/anlagen/index.html","SE_ANNO_CAD_DATA":null}},{"type":"Feature","id":"PARKINFOOGD.2899502","geometry":{"type":"Point","coordinates":[16.39031575,48.1425064]},"geometry_name":"SHAPE","properties":{"OBJECTID":2899502,"ANL_NAME":"PA Kurt-Tichy-Gasse","BEZIRK":10,"FLAECHE":"3.540 m²","OEFF_ZEITEN":"0:00-24:00","SPIELEN_IM_PARK":"Ja","WASSER_IM_PARK":"Ja","HUNDE_IM_PARK":"Nein","TELEFON":"01 4000 8042","WEBLINK1":"http://www.wien.gv.at/umwelt/parks/anlagen/index.html","SE_ANNO_CAD_DATA":null}},{"type":"Feature","id":"PARKINFOOGD.2899503","geometry":{"type":"Point","coordinates":[16.41484848,48.13340971]},"geometry_name":"SHAPE","properties":{"OBJECTID":2899503,"ANL_NAME":"PA Unter-Laaer Straße","BEZIRK":10,"FLAECHE":"2.997 m²","OEFF_ZEITEN":"0:00-24:00","SPIELEN_IM_PARK":"Nein","WASSER_IM_PARK":"Nein","HUNDE_IM_PARK":"Nein","TELEFON":"01 4000 8042","WEBLINK1":"http://www.wien.gv.at/umwelt/parks/anlagen/index.html","SE_ANNO_CAD_DATA":null}},{"type":"Feature","id":"PARKINFOOGD.2899504","geometry":{"type":"Point","coordinates":[16.39938304,48.13676364]},"geometry_name":"SHAPE","properties":{"OBJECTID":2899504,"ANL_NAME":"PA Untere Kaistraße","BEZIRK":10,"FLAECHE":"693 m²","OEFF_ZEITEN":"0:00-24:00","SPIELEN_IM_PARK":"Nein","WASSER_IM_PARK":"Nein","HUNDE_IM_PARK":"Nein","TELEFON":"01 4000 8042","WEBLINK1":"http://www.wien.gv.at/umwelt/parks/anlagen/index.html","SE_ANNO_CAD_DATA":null}},{"type":"Feature","id":"PARKINFOOGD.2899505","geometry":{"type":"Point","coordinates":[16.39496029,48.14659338]},"geometry_name":"SHAPE","properties":{"OBJECTID":2899505,"ANL_NAME":"PA Johann-Pölzer-Gasse","BEZIRK":10,"FLAECHE":"3.578 m²","OEFF_ZEITEN":"0:00-24:00","SPIELEN_IM_PARK":"Ja","WASSER_IM_PARK":"Nein","HUNDE_IM_PARK":"Nein","TELEFON":"01 4000 8042","WEBLINK1":"http://www.wien.gv.at/umwelt/parks/anlagen/index.html","SE_ANNO_CAD_DATA":null}},{"type":"Feature","id":"PARKINFOOGD.2899506","geometry":{"type":"Point","coordinates":[16.36088879,48.17459214]},"geometry_name":"SHAPE","properties":{"OBJECTID":2899506,"ANL_NAME":"Barankapark-Hellerwiese","BEZIRK":10,"FLAECHE":"5.130 m²","OEFF_ZEITEN":"06:00-21:00","SPIELEN_IM_PARK":"Ja","WASSER_IM_PARK":"Ja","HUNDE_IM_PARK":"Nein","TELEFON":"01 4000 8042","WEBLINK1":"http://www.wien.gv.at/umwelt/parks/anlagen/index.html","SE_ANNO_CAD_DATA":null}},{"type":"Feature","id":"PARKINFOOGD.2899507","geometry":{"type":"Point","coordinates":[16.39244164,48.1465505]},"geometry_name":"SHAPE","properties":{"OBJECTID":2899507,"ANL_NAME":"PA Alma-Rose-Gasse","BEZIRK":10,"FLAECHE":"1.499 m²","OEFF_ZEITEN":"0:00-24:00","SPIELEN_IM_PARK":"Nein","WASSER_IM_PARK":"Nein","HUNDE_IM_PARK":"Nein","TELEFON":"01 4000 8042","WEBLINK1":"http://www.wien.gv.at/umwelt/parks/anlagen/index.html","SE_ANNO_CAD_DATA":null}},{"type":"Feature","id":"PARKINFOOGD.2899508","geometry":{"type":"Point","coordinates":[16.34891841,48.21662075]},"geometry_name":"SHAPE","properties":{"OBJECTID":2899508,"ANL_NAME":"Viktor-Frankl-Park","BEZIRK":9,"FLAECHE":"3.428 m²","OEFF_ZEITEN":"7:00-21:00","SPIELEN_IM_PARK":"Ja","WASSER_IM_PARK":"Ja","HUNDE_IM_PARK":"Nein","TELEFON":"01 4000 8042","WEBLINK1":"http://www.wien.gv.at/umwelt/parks/anlagen/index.html","SE_ANNO_CAD_DATA":null}},{"type":"Feature","id":"PARKINFOOGD.2899509","geometry":{"type":"Point","coordinates":[16.35260359,48.22946394]},"geometry_name":"SHAPE","properties":{"OBJECTID":2899509,"ANL_NAME":"Helene-Deutsch-Park","BEZIRK":9,"FLAECHE":"3.513 m²","OEFF_ZEITEN":"6:50-20:30","SPIELEN_IM_PARK":"Ja","WASSER_IM_PARK":"Ja","HUNDE_IM_PARK":"Nein","TELEFON":"01 4000 8042","WEBLINK1":"http://www.wien.gv.at/umwelt/parks/anlagen/index.html","SE_ANNO_CAD_DATA":null}},{"type":"Feature","id":"PARKINFOOGD.2899510","geometry":{"type":"Point","coordinates":[16.27374751,48.1938132]},"geometry_name":"SHAPE","properties":{"OBJECTID":2899510,"ANL_NAME":"PA Hochsatzengasse","BEZIRK":14,"FLAECHE":"3.673 m²","OEFF_ZEITEN":"0:00-24:00","SPIELEN_IM_PARK":"Ja","WASSER_IM_PARK":"Ja","HUNDE_IM_PARK":"Nein","TELEFON":"01 4000 8042","WEBLINK1":"http://www.wien.gv.at/umwelt/parks/anlagen/index.html","SE_ANNO_CAD_DATA":null}},{"type":"Feature","id":"PARKINFOOGD.2899511","geometry":{"type":"Point","coordinates":[16.28278232,48.20565031]},"geometry_name":"SHAPE","properties":{"OBJECTID":2899511,"ANL_NAME":"PA Antaeusgasse","BEZIRK":14,"FLAECHE":"846 m²","OEFF_ZEITEN":"0:00-24:00","SPIELEN_IM_PARK":"Ja","WASSER_IM_PARK":"Nein","HUNDE_IM_PARK":"Nein","TELEFON":"01 4000 8042","WEBLINK1":"http://www.wien.gv.at/umwelt/parks/anlagen/index.html","SE_ANNO_CAD_DATA":null}},{"type":"Feature","id":"PARKINFOOGD.2899512","geometry":{"type":"Point","coordinates":[16.26975798,48.18907845]},"geometry_name":"SHAPE","properties":{"OBJECTID":2899512,"ANL_NAME":"PA Sommerergasse","BEZIRK":13,"FLAECHE":"1.122 m²","OEFF_ZEITEN":"0:00-24:00","SPIELEN_IM_PARK":"Ja","WASSER_IM_PARK":"Nein","HUNDE_IM_PARK":"Nein","TELEFON":"01 4000 8042","WEBLINK1":"http://www.wien.gv.at/umwelt/parks/anlagen/index.html","SE_ANNO_CAD_DATA":null}},{"type":"Feature","id":"PARKINFOOGD.2899513","geometry":{"type":"Point","coordinates":[16.29626814,48.18140441]},"geometry_name":"SHAPE","properties":{"OBJECTID":2899513,"ANL_NAME":"Katharina-Schratt-Park","BEZIRK":13,"FLAECHE":"1.765 m²","OEFF_ZEITEN":"0:00-24:00","SPIELEN_IM_PARK":"Nein","WASSER_IM_PARK":"Nein","HUNDE_IM_PARK":"Nein","TELEFON":"01 4000 8042","WEBLINK1":"http://www.wien.gv.at/umwelt/parks/anlagen/index.html","SE_ANNO_CAD_DATA":null}},{"type":"Feature","id":"PARKINFOOGD.2899547","geometry":{"type":"Point","coordinates":[16.33092667,48.17337907]},"geometry_name":"SHAPE","properties":{"OBJECTID":2899547,"ANL_NAME":"Franz-Nekula-Park","BEZIRK":12,"FLAECHE":"6.787 m²","OEFF_ZEITEN":"0:00-24:00","SPIELEN_IM_PARK":"Ja","WASSER_IM_PARK":"Ja","HUNDE_IM_PARK":"Nein","TELEFON":"01 4000 8042","WEBLINK1":"http://www.wien.gv.at/umwelt/parks/anlagen/index.html","SE_ANNO_CAD_DATA":null}},{"type":"Feature","id":"PARKINFOOGD.2899548","geometry":{"type":"Point","coordinates":[16.32247232,48.1772986]},"geometry_name":"SHAPE","properties":{"OBJECTID":2899548,"ANL_NAME":"PA Rotenmühlgasse","BEZIRK":12,"FLAECHE":"541 m²","OEFF_ZEITEN":"0:00-24:00","SPIELEN_IM_PARK":"Nein","WASSER_IM_PARK":"Nein","HUNDE_IM_PARK":"Nein","TELEFON":"01 4000 8042","WEBLINK1":"http://www.wien.gv.at/umwelt/parks/anlagen/index.html","SE_ANNO_CAD_DATA":null}},{"type":"Feature","id":"PARKINFOOGD.2899549","geometry":{"type":"Point","coordinates":[16.32361088,48.18182777]},"geometry_name":"SHAPE","properties":{"OBJECTID":2899549,"ANL_NAME":"PA Rosasgasse","BEZIRK":12,"FLAECHE":"279 m²","OEFF_ZEITEN":"0:00-24:00","SPIELEN_IM_PARK":"Ja","WASSER_IM_PARK":"Nein","HUNDE_IM_PARK":"Nein","TELEFON":"01 4000 8042","WEBLINK1":"http://www.wien.gv.at/umwelt/parks/anlagen/index.html","SE_ANNO_CAD_DATA":null}},{"type":"Feature","id":"PARKINFOOGD.2899550","geometry":{"type":"Point","coordinates":[16.29705843,48.16933211]},"geometry_name":"SHAPE","properties":{"OBJECTID":2899550,"ANL_NAME":"PA Münchenstraße","BEZIRK":12,"FLAECHE":"963 m²","OEFF_ZEITEN":"0:00-24:00","SPIELEN_IM_PARK":"Nein","WASSER_IM_PARK":"Nein","HUNDE_IM_PARK":"Nein","TELEFON":"01 4000 8042","WEBLINK1":"http://www.wien.gv.at/umwelt/parks/anlagen/index.html","SE_ANNO_CAD_DATA":null}},{"type":"Feature","id":"PARKINFOOGD.2899551","geometry":{"type":"Point","coordinates":[16.3250973,48.16498935]},"geometry_name":"SHAPE","properties":{"OBJECTID":2899551,"ANL_NAME":"PA Helene-Potetz-Weg","BEZIRK":12,"FLAECHE":"451 m²","OEFF_ZEITEN":"0:00-24:00","SPIELEN_IM_PARK":"Nein","WASSER_IM_PARK":"Nein","HUNDE_IM_PARK":"Nein","TELEFON":"01 4000 8042","WEBLINK1":"http://www.wien.gv.at/umwelt/parks/anlagen/index.html","SE_ANNO_CAD_DATA":null}},{"type":"Feature","id":"PARKINFOOGD.2899552","geometry":{"type":"Point","coordinates":[16.32571961,48.16651114]},"geometry_name":"SHAPE","properties":{"OBJECTID":2899552,"ANL_NAME":"PA Hedy-Lamarr-Weg","BEZIRK":12,"FLAECHE":"1.017 m²","OEFF_ZEITEN":"0:00-24:00","SPIELEN_IM_PARK":"Nein","WASSER_IM_PARK":"Ja","HUNDE_IM_PARK":"Nein","TELEFON":"01 4000 8042","WEBLINK1":"http://www.wien.gv.at/umwelt/parks/anlagen/index.html","SE_ANNO_CAD_DATA":null}},{"type":"Feature","id":"PARKINFOOGD.2899553","geometry":{"type":"Point","coordinates":[16.30006494,48.17011832]},"geometry_name":"SHAPE","properties":{"OBJECTID":2899553,"ANL_NAME":"PA Hetzendorfer Straße","BEZIRK":12,"FLAECHE":"549 m²","OEFF_ZEITEN":"0:00-24:00","SPIELEN_IM_PARK":"Nein","WASSER_IM_PARK":"Nein","HUNDE_IM_PARK":"Nein","TELEFON":"01 4000 8042","WEBLINK1":"http://www.wien.gv.at/umwelt/parks/anlagen/index.html","SE_ANNO_CAD_DATA":null}},{"type":"Feature","id":"PARKINFOOGD.2899554","geometry":{"type":"Point","coordinates":[16.33326374,48.18157655]},"geometry_name":"SHAPE","properties":{"OBJECTID":2899554,"ANL_NAME":"Hermann-Leopoldi-Park","BEZIRK":12,"FLAECHE":"6.067 m²","OEFF_ZEITEN":"Okt-März:06:00-21:00, Apr-Sep:06:00-21:30","SPIELEN_IM_PARK":"Ja","WASSER_IM_PARK":"Ja","HUNDE_IM_PARK":"Nein","TELEFON":"01 4000 8042","WEBLINK1":"http://www.wien.gv.at/umwelt/parks/anlagen/index.html","SE_ANNO_CAD_DATA":null}},{"type":"Feature","id":"PARKINFOOGD.2899555","geometry":{"type":"Point","coordinates":[16.32033184,48.17114389]},"geometry_name":"SHAPE","properties":{"OBJECTID":2899555,"ANL_NAME":"Bil-Spira-Park","BEZIRK":12,"FLAECHE":"13.676 m²","OEFF_ZEITEN":"0:00-24:00","SPIELEN_IM_PARK":"Ja","WASSER_IM_PARK":"Ja","HUNDE_IM_PARK":"Ja","TELEFON":"01 4000 8042","WEBLINK1":"http://www.wien.gv.at/umwelt/parks/anlagen/index.html","SE_ANNO_CAD_DATA":null}},{"type":"Feature","id":"PARKINFOOGD.2899556","geometry":{"type":"Point","coordinates":[16.29362961,48.17794128]},"geometry_name":"SHAPE","properties":{"OBJECTID":2899556,"ANL_NAME":"PA Adolf-Lorenz-Gasse","BEZIRK":13,"FLAECHE":"1.527 m²","OEFF_ZEITEN":"0:00-24:00","SPIELEN_IM_PARK":"Ja","WASSER_IM_PARK":"Ja","HUNDE_IM_PARK":"Nein","TELEFON":"01 4000 8042","WEBLINK1":"http://www.wien.gv.at/umwelt/parks/anlagen/index.html","SE_ANNO_CAD_DATA":null}},{"type":"Feature","id":"PARKINFOOGD.2899557","geometry":{"type":"Point","coordinates":[16.33708592,48.1867606]},"geometry_name":"SHAPE","properties":{"OBJECTID":2899557,"ANL_NAME":"Linsepark","BEZIRK":12,"FLAECHE":"5.574 m²","OEFF_ZEITEN":"0:00-24:00","SPIELEN_IM_PARK":"Ja","WASSER_IM_PARK":"Ja","HUNDE_IM_PARK":"Nein","TELEFON":"01 4000 8042","WEBLINK1":"http://www.wien.gv.at/umwelt/parks/anlagen/index.html","SE_ANNO_CAD_DATA":null}},{"type":"Feature","id":"PARKINFOOGD.2899558","geometry":{"type":"Point","coordinates":[16.24631794,48.2186372]},"geometry_name":"SHAPE","properties":{"OBJECTID":2899558,"ANL_NAME":"PA Ausjagdweg","BEZIRK":14,"FLAECHE":"1.304 m²","OEFF_ZEITEN":"0:00-24:00","SPIELEN_IM_PARK":"Nein","WASSER_IM_PARK":"Nein","HUNDE_IM_PARK":"Nein","TELEFON":"01 4000 8042","WEBLINK1":"http://www.wien.gv.at/umwelt/parks/anlagen/index.html","SE_ANNO_CAD_DATA":null}},{"type":"Feature","id":"PARKINFOOGD.2899559","geometry":{"type":"Point","coordinates":[16.27160138,48.19025725]},"geometry_name":"SHAPE","properties":{"OBJECTID":2899559,"ANL_NAME":"Streckerpark","BEZIRK":13,"FLAECHE":"5.572 m²","OEFF_ZEITEN":"0:00-24:00","SPIELEN_IM_PARK":"Ja","WASSER_IM_PARK":"Ja","HUNDE_IM_PARK":"Nein","TELEFON":"01 4000 8042","WEBLINK1":"http://www.wien.gv.at/umwelt/parks/anlagen/index.html","SE_ANNO_CAD_DATA":null}},{"type":"Feature","id":"PARKINFOOGD.2899560","geometry":{"type":"Point","coordinates":[16.2761656,48.16042407]},"geometry_name":"SHAPE","properties":{"OBJECTID":2899560,"ANL_NAME":"PA Sillerplatz","BEZIRK":13,"FLAECHE":"2.709 m²","OEFF_ZEITEN":"0:00-24:00","SPIELEN_IM_PARK":"Nein","WASSER_IM_PARK":"Nein","HUNDE_IM_PARK":"Nein","TELEFON":"01 4000 8042","WEBLINK1":"http://www.wien.gv.at/umwelt/parks/anlagen/index.html","SE_ANNO_CAD_DATA":null}},{"type":"Feature","id":"PARKINFOOGD.2899561","geometry":{"type":"Point","coordinates":[16.27229602,48.1819135]},"geometry_name":"SHAPE","properties":{"OBJECTID":2899561,"ANL_NAME":"PA Roter Berg","BEZIRK":13,"FLAECHE":"134.338 m²","OEFF_ZEITEN":"0:00-24:00","SPIELEN_IM_PARK":"Ja","WASSER_IM_PARK":"Ja","HUNDE_IM_PARK":"Nein","TELEFON":"01 4000 8042","WEBLINK1":"http://www.wien.gv.at/umwelt/parks/anlagen/index.html","SE_ANNO_CAD_DATA":null}},{"type":"Feature","id":"PARKINFOOGD.2899562","geometry":{"type":"Point","coordinates":[16.27322335,48.17620551]},"geometry_name":"SHAPE","properties":{"OBJECTID":2899562,"ANL_NAME":"Hugo-Pepper-Park","BEZIRK":13,"FLAECHE":"5.484 m²","OEFF_ZEITEN":"0:00-24:00","SPIELEN_IM_PARK":"Ja","WASSER_IM_PARK":"Nein","HUNDE_IM_PARK":"Nein","TELEFON":"01 4000 8042","WEBLINK1":"http://www.wien.gv.at/umwelt/parks/anlagen/index.html","SE_ANNO_CAD_DATA":null}},{"type":"Feature","id":"PARKINFOOGD.2899563","geometry":{"type":"Point","coordinates":[16.26435608,48.17753097]},"geometry_name":"SHAPE","properties":{"OBJECTID":2899563,"ANL_NAME":"PA Gemeindeberggasse","BEZIRK":13,"FLAECHE":"5.142 m²","OEFF_ZEITEN":"0:00-24:00","SPIELEN_IM_PARK":"Nein","WASSER_IM_PARK":"Nein","HUNDE_IM_PARK":"Nein","TELEFON":"01 4000 8042","WEBLINK1":"http://www.wien.gv.at/umwelt/parks/anlagen/index.html","SE_ANNO_CAD_DATA":null}},{"type":"Feature","id":"PARKINFOOGD.2899564","geometry":{"type":"Point","coordinates":[16.2684479,48.16096637]},"geometry_name":"SHAPE","properties":{"OBJECTID":2899564,"ANL_NAME":"Napoleonwald","BEZIRK":13,"FLAECHE":"31.793 m²","OEFF_ZEITEN":"0:00-24:00","SPIELEN_IM_PARK":"Ja","WASSER_IM_PARK":"Ja","HUNDE_IM_PARK":"Nein","TELEFON":"01 4000 8042","WEBLINK1":"http://www.wien.gv.at/umwelt/parks/anlagen/index.html","SE_ANNO_CAD_DATA":null}},{"type":"Feature","id":"PARKINFOOGD.2899565","geometry":{"type":"Point","coordinates":[16.30068756,48.17777038]},"geometry_name":"SHAPE","properties":{"OBJECTID":2899565,"ANL_NAME":"Maxingpark","BEZIRK":13,"FLAECHE":"26.072 m²","OEFF_ZEITEN":"0:00-24:00","SPIELEN_IM_PARK":"Ja","WASSER_IM_PARK":"Ja","HUNDE_IM_PARK":"Nein","TELEFON":"01 4000 8042","WEBLINK1":"http://www.wien.gv.at/umwelt/parks/anlagen/index.html","SE_ANNO_CAD_DATA":null}},{"type":"Feature","id":"PARKINFOOGD.2899566","geometry":{"type":"Point","coordinates":[16.25741824,48.19426627]},"geometry_name":"SHAPE","properties":{"OBJECTID":2899566,"ANL_NAME":"Max-Mell-Park","BEZIRK":13,"FLAECHE":"1.454 m²","OEFF_ZEITEN":"0:00-24:00","SPIELEN_IM_PARK":"Nein","WASSER_IM_PARK":"Nein","HUNDE_IM_PARK":"Nein","TELEFON":"01 4000 8042","WEBLINK1":"http://www.wien.gv.at/umwelt/parks/anlagen/index.html","SE_ANNO_CAD_DATA":null}},{"type":"Feature","id":"PARKINFOOGD.2899567","geometry":{"type":"Point","coordinates":[16.29194209,48.16351153]},"geometry_name":"SHAPE","properties":{"OBJECTID":2899567,"ANL_NAME":"PA Fred-Liewehr-Gasse","BEZIRK":13,"FLAECHE":"2.138 m²","OEFF_ZEITEN":"0:00-24:00","SPIELEN_IM_PARK":"Ja","WASSER_IM_PARK":"Ja","HUNDE_IM_PARK":"Nein","TELEFON":"01 4000 8042","WEBLINK1":"http://www.wien.gv.at/umwelt/parks/anlagen/index.html","SE_ANNO_CAD_DATA":null}},{"type":"Feature","id":"PARKINFOOGD.2899568","geometry":{"type":"Point","coordinates":[16.26087648,48.16553714]},"geometry_name":"SHAPE","properties":{"OBJECTID":2899568,"ANL_NAME":"Lainzerbachwiese","BEZIRK":13,"FLAECHE":"20.269 m²","OEFF_ZEITEN":"0:00-24:00","SPIELEN_IM_PARK":"Nein","WASSER_IM_PARK":"Ja","HUNDE_IM_PARK":"Nein","TELEFON":"01 4000 8042","WEBLINK1":"http://www.wien.gv.at/umwelt/parks/anlagen/index.html","SE_ANNO_CAD_DATA":null}},{"type":"Feature","id":"PARKINFOOGD.2899569","geometry":{"type":"Point","coordinates":[16.27115405,48.16625369]},"geometry_name":"SHAPE","properties":{"OBJECTID":2899569,"ANL_NAME":"PA Lainzerbachstraße","BEZIRK":13,"FLAECHE":"4.486 m²","OEFF_ZEITEN":"0:00-24:00","SPIELEN_IM_PARK":"Ja","WASSER_IM_PARK":"Nein","HUNDE_IM_PARK":"Nein","TELEFON":"01 4000 8042","WEBLINK1":"http://www.wien.gv.at/umwelt/parks/anlagen/index.html","SE_ANNO_CAD_DATA":null}},{"type":"Feature","id":"PARKINFOOGD.2899570","geometry":{"type":"Point","coordinates":[16.26358792,48.17917659]},"geometry_name":"SHAPE","properties":{"OBJECTID":2899570,"ANL_NAME":"PA Josef-Kraft-Weg","BEZIRK":13,"FLAECHE":"6.097 m²","OEFF_ZEITEN":"0:00-24:00","SPIELEN_IM_PARK":"Nein","WASSER_IM_PARK":"Nein","HUNDE_IM_PARK":"Nein","TELEFON":"01 4000 8042","WEBLINK1":"http://www.wien.gv.at/umwelt/parks/anlagen/index.html","SE_ANNO_CAD_DATA":null}},{"type":"Feature","id":"PARKINFOOGD.2899571","geometry":{"type":"Point","coordinates":[16.21485745,48.20518057]},"geometry_name":"SHAPE","properties":{"OBJECTID":2899571,"ANL_NAME":"PA Hofjägerstraße","BEZIRK":13,"FLAECHE":"2.875 m²","OEFF_ZEITEN":"0:00-24:00","SPIELEN_IM_PARK":"Ja","WASSER_IM_PARK":"Ja","HUNDE_IM_PARK":"Nein","TELEFON":"01 4000 8042","WEBLINK1":"http://www.wien.gv.at/umwelt/parks/anlagen/index.html","SE_ANNO_CAD_DATA":null}},{"type":"Feature","id":"PARKINFOOGD.2899572","geometry":{"type":"Point","coordinates":[16.2805666,48.16736671]},"geometry_name":"SHAPE","properties":{"OBJECTID":2899572,"ANL_NAME":"PA Hochmaisgasse","BEZIRK":13,"FLAECHE":"1.736 m²","OEFF_ZEITEN":"0:00-24:00","SPIELEN_IM_PARK":"Nein","WASSER_IM_PARK":"Nein","HUNDE_IM_PARK":"Nein","TELEFON":"01 4000 8042","WEBLINK1":"http://www.wien.gv.at/umwelt/parks/anlagen/index.html","SE_ANNO_CAD_DATA":null}},{"type":"Feature","id":"PARKINFOOGD.2899573","geometry":{"type":"Point","coordinates":[16.28820267,48.17290906]},"geometry_name":"SHAPE","properties":{"OBJECTID":2899573,"ANL_NAME":"PA Himmelbaurgasse","BEZIRK":13,"FLAECHE":"5.050 m²","OEFF_ZEITEN":"0:00-24:00","SPIELEN_IM_PARK":"Ja","WASSER_IM_PARK":"Nein","HUNDE_IM_PARK":"Nein","TELEFON":"01 4000 8042","WEBLINK1":"http://www.wien.gv.at/umwelt/parks/anlagen/index.html","SE_ANNO_CAD_DATA":null}},{"type":"Feature","id":"PARKINFOOGD.2899574","geometry":{"type":"Point","coordinates":[16.26552748,48.16672615]},"geometry_name":"SHAPE","properties":{"OBJECTID":2899574,"ANL_NAME":"PA Hermesstraße","BEZIRK":13,"FLAECHE":"12.515 m²","OEFF_ZEITEN":"0:00-24:00","SPIELEN_IM_PARK":"Nein","WASSER_IM_PARK":"Nein","HUNDE_IM_PARK":"Nein","TELEFON":"01 4000 8042","WEBLINK1":"http://www.wien.gv.at/umwelt/parks/anlagen/index.html","SE_ANNO_CAD_DATA":null}},{"type":"Feature","id":"PARKINFOOGD.2899575","geometry":{"type":"Point","coordinates":[16.30186626,48.18788243]},"geometry_name":"SHAPE","properties":{"OBJECTID":2899575,"ANL_NAME":"Hans-Moser-Park","BEZIRK":13,"FLAECHE":"1.142 m²","OEFF_ZEITEN":"0:00-24:00","SPIELEN_IM_PARK":"Nein","WASSER_IM_PARK":"Ja","HUNDE_IM_PARK":"Nein","TELEFON":"01 4000 8042","WEBLINK1":"http://www.wien.gv.at/umwelt/parks/anlagen/index.html","SE_ANNO_CAD_DATA":null}},{"type":"Feature","id":"PARKINFOOGD.2899576","geometry":{"type":"Point","coordinates":[16.29723778,48.17558785]},"geometry_name":"SHAPE","properties":{"OBJECTID":2899576,"ANL_NAME":"Gustav-Zelibor-Park","BEZIRK":13,"FLAECHE":"1.527 m²","OEFF_ZEITEN":"0:00-24:00","SPIELEN_IM_PARK":"Nein","WASSER_IM_PARK":"Nein","HUNDE_IM_PARK":"Nein","TELEFON":"01 4000 8042","WEBLINK1":"http://www.wien.gv.at/umwelt/parks/anlagen/index.html","SE_ANNO_CAD_DATA":null}},{"type":"Feature","id":"PARKINFOOGD.2899577","geometry":{"type":"Point","coordinates":[16.31562541,48.17805012]},"geometry_name":"SHAPE","properties":{"OBJECTID":2899577,"ANL_NAME":"PA Grünbergstraße","BEZIRK":13,"FLAECHE":"5.685 m²","OEFF_ZEITEN":"0:00-24:00","SPIELEN_IM_PARK":"Nein","WASSER_IM_PARK":"Nein","HUNDE_IM_PARK":"Nein","TELEFON":"01 4000 8042","WEBLINK1":"http://www.wien.gv.at/umwelt/parks/anlagen/index.html","SE_ANNO_CAD_DATA":null}},{"type":"Feature","id":"PARKINFOOGD.2899578","geometry":{"type":"Point","coordinates":[16.27417886,48.16461003]},"geometry_name":"SHAPE","properties":{"OBJECTID":2899578,"ANL_NAME":"Anna-Freud-Park","BEZIRK":13,"FLAECHE":"10.395 m²","OEFF_ZEITEN":"0:00-24:00","SPIELEN_IM_PARK":"Ja","WASSER_IM_PARK":"Ja","HUNDE_IM_PARK":"Nein","TELEFON":"01 4000 8042","WEBLINK1":"http://www.wien.gv.at/umwelt/parks/anlagen/index.html","SE_ANNO_CAD_DATA":null}},{"type":"Feature","id":"PARKINFOOGD.2899579","geometry":{"type":"Point","coordinates":[16.28779517,48.16775486]},"geometry_name":"SHAPE","properties":{"OBJECTID":2899579,"ANL_NAME":"PA Furtwänglerplatz","BEZIRK":13,"FLAECHE":"6.169 m²","OEFF_ZEITEN":"0:00-24:00","SPIELEN_IM_PARK":"Ja","WASSER_IM_PARK":"Ja","HUNDE_IM_PARK":"Nein","TELEFON":"01 4000 8042","WEBLINK1":"http://www.wien.gv.at/umwelt/parks/anlagen/index.html","SE_ANNO_CAD_DATA":null}},{"type":"Feature","id":"PARKINFOOGD.2899514","geometry":{"type":"Point","coordinates":[16.26539517,48.16694462]},"geometry_name":"SHAPE","properties":{"OBJECTID":2899514,"ANL_NAME":"PA Jenbachgasse","BEZIRK":13,"FLAECHE":"1.024 m²","OEFF_ZEITEN":"0:00-24:00","SPIELEN_IM_PARK":"Nein","WASSER_IM_PARK":"Nein","HUNDE_IM_PARK":"Nein","TELEFON":"01 4000 8042","WEBLINK1":"http://www.wien.gv.at/umwelt/parks/anlagen/index.html","SE_ANNO_CAD_DATA":null}},{"type":"Feature","id":"PARKINFOOGD.2899515","geometry":{"type":"Point","coordinates":[16.27968991,48.16922492]},"geometry_name":"SHAPE","properties":{"OBJECTID":2899515,"ANL_NAME":"Helene-Druskowitz-Park","BEZIRK":13,"FLAECHE":"1.042 m²","OEFF_ZEITEN":"0:00-24:00","SPIELEN_IM_PARK":"Nein","WASSER_IM_PARK":"Nein","HUNDE_IM_PARK":"Nein","TELEFON":"01 4000 8042","WEBLINK1":"http://www.wien.gv.at/umwelt/parks/anlagen/index.html","SE_ANNO_CAD_DATA":null}},{"type":"Feature","id":"PARKINFOOGD.2899516","geometry":{"type":"Point","coordinates":[16.26135241,48.18252263]},"geometry_name":"SHAPE","properties":{"OBJECTID":2899516,"ANL_NAME":"Franz-Schmidt-Park","BEZIRK":13,"FLAECHE":"3.191 m²","OEFF_ZEITEN":"0:00-24:00","SPIELEN_IM_PARK":"Nein","WASSER_IM_PARK":"Nein","HUNDE_IM_PARK":"Nein","TELEFON":"01 4000 8042","WEBLINK1":"http://www.wien.gv.at/umwelt/parks/anlagen/index.html","SE_ANNO_CAD_DATA":null}},{"type":"Feature","id":"PARKINFOOGD.2899517","geometry":{"type":"Point","coordinates":[16.40789013,48.2018891]},"geometry_name":"SHAPE","properties":{"OBJECTID":2899517,"ANL_NAME":"Prater - Forstwiesen-Nord","BEZIRK":2,"FLAECHE":"43.241 m²","OEFF_ZEITEN":"0:00-24:00","SPIELEN_IM_PARK":"Nein","WASSER_IM_PARK":"Nein","HUNDE_IM_PARK":"Nein","TELEFON":"01 4000 8042","WEBLINK1":"http://www.wien.gv.at/umwelt/parks/anlagen/index.html","SE_ANNO_CAD_DATA":null}},{"type":"Feature","id":"PARKINFOOGD.2899518","geometry":{"type":"Point","coordinates":[16.41881322,48.19877548]},"geometry_name":"SHAPE","properties":{"OBJECTID":2899518,"ANL_NAME":"Prater - Wasserwiese","BEZIRK":2,"FLAECHE":"94.692 m²","OEFF_ZEITEN":"0:00-24:00","SPIELEN_IM_PARK":"Ja","WASSER_IM_PARK":"Ja","HUNDE_IM_PARK":"Nein","TELEFON":"01 4000 8042","WEBLINK1":"http://www.wien.gv.at/umwelt/parks/anlagen/index.html","SE_ANNO_CAD_DATA":null}},{"type":"Feature","id":"PARKINFOOGD.2899519","geometry":{"type":"Point","coordinates":[16.42579816,48.20122787]},"geometry_name":"SHAPE","properties":{"OBJECTID":2899519,"ANL_NAME":"Prater - Golfwiese","BEZIRK":2,"FLAECHE":"82.121 m²","OEFF_ZEITEN":"0:00-24:00","SPIELEN_IM_PARK":"Ja","WASSER_IM_PARK":"Nein","HUNDE_IM_PARK":"Nein","TELEFON":"01 4000 8042","WEBLINK1":"http://www.wien.gv.at/umwelt/parks/anlagen/index.html","SE_ANNO_CAD_DATA":null}},{"type":"Feature","id":"PARKINFOOGD.2899520","geometry":{"type":"Point","coordinates":[16.33259189,48.20358803]},"geometry_name":"SHAPE","properties":{"OBJECTID":2899520,"ANL_NAME":"Vogelweidpark","BEZIRK":15,"FLAECHE":"19.150 m²","OEFF_ZEITEN":"0:00-24:00","SPIELEN_IM_PARK":"Ja","WASSER_IM_PARK":"Ja","HUNDE_IM_PARK":"Nein","TELEFON":"01 4000 8042","WEBLINK1":"http://www.wien.gv.at/umwelt/parks/anlagen/index.html","SE_ANNO_CAD_DATA":null}},{"type":"Feature","id":"PARKINFOOGD.2899521","geometry":{"type":"Point","coordinates":[16.27529808,48.19661107]},"geometry_name":"SHAPE","properties":{"OBJECTID":2899521,"ANL_NAME":"Baumgartner-Casino-Park","BEZIRK":14,"FLAECHE":"19.004 m²","OEFF_ZEITEN":"0:00-24:00","SPIELEN_IM_PARK":"Ja","WASSER_IM_PARK":"Ja","HUNDE_IM_PARK":"Nein","TELEFON":"01 4000 8042","WEBLINK1":"http://www.wien.gv.at/umwelt/parks/anlagen/index.html","SE_ANNO_CAD_DATA":null}},{"type":"Feature","id":"PARKINFOOGD.2899522","geometry":{"type":"Point","coordinates":[16.43986536,48.19568478]},"geometry_name":"SHAPE","properties":{"OBJECTID":2899522,"ANL_NAME":"Prater - Grafenwiese","BEZIRK":2,"FLAECHE":"171.720 m²","OEFF_ZEITEN":"0:00-24:00","SPIELEN_IM_PARK":"Ja","WASSER_IM_PARK":"Nein","HUNDE_IM_PARK":"Nein","TELEFON":"01 4000 8042","WEBLINK1":"http://www.wien.gv.at/umwelt/parks/anlagen/index.html","SE_ANNO_CAD_DATA":null}},{"type":"Feature","id":"PARKINFOOGD.2899523","geometry":{"type":"Point","coordinates":[16.43903148,48.19173274]},"geometry_name":"SHAPE","properties":{"OBJECTID":2899523,"ANL_NAME":"Prater - Rennbahnstraßenwiese","BEZIRK":2,"FLAECHE":"5.128 m²","OEFF_ZEITEN":"0:00-24:00","SPIELEN_IM_PARK":"Nein","WASSER_IM_PARK":"Nein","HUNDE_IM_PARK":"Nein","TELEFON":"01 4000 8042","WEBLINK1":"http://www.wien.gv.at/umwelt/parks/anlagen/index.html","SE_ANNO_CAD_DATA":null}},{"type":"Feature","id":"PARKINFOOGD.2899524","geometry":{"type":"Point","coordinates":[16.44188796,48.15639026]},"geometry_name":"SHAPE","properties":{"OBJECTID":2899524,"ANL_NAME":"PA Feuerhalle Simmering","BEZIRK":11,"FLAECHE":"4.149 m²","OEFF_ZEITEN":"0:00-24:00","SPIELEN_IM_PARK":"Ja","WASSER_IM_PARK":"Ja","HUNDE_IM_PARK":"Nein","TELEFON":"01 4000 8042","WEBLINK1":"http://www.wien.gv.at/umwelt/parks/anlagen/index.html","SE_ANNO_CAD_DATA":null}},{"type":"Feature","id":"PARKINFOOGD.2899525","geometry":{"type":"Point","coordinates":[16.33687145,48.18605928]},"geometry_name":"SHAPE","properties":{"OBJECTID":2899525,"ANL_NAME":"PA Kobingergasse","BEZIRK":12,"FLAECHE":"532 m²","OEFF_ZEITEN":"00:00-24:00","SPIELEN_IM_PARK":"Nein","WASSER_IM_PARK":"Nein","HUNDE_IM_PARK":"Nein","TELEFON":"01 4000 8042","WEBLINK1":"http://www.wien.gv.at/umwelt/parks/anlagen/index.html","SE_ANNO_CAD_DATA":null}},{"type":"Feature","id":"PARKINFOOGD.2899526","geometry":{"type":"Point","coordinates":[16.35708437,48.21086836]},"geometry_name":"SHAPE","properties":{"OBJECTID":2899526,"ANL_NAME":"Arkadenhof Rathaus","BEZIRK":1,"FLAECHE":"260 m²","OEFF_ZEITEN":"00:00-24:00","SPIELEN_IM_PARK":"Nein","WASSER_IM_PARK":"Nein","HUNDE_IM_PARK":"Nein","TELEFON":"01 4000 8042","WEBLINK1":"http://www.wien.gv.at/umwelt/parks/anlagen/index.html","SE_ANNO_CAD_DATA":null}},{"type":"Feature","id":"PARKINFOOGD.2899527","geometry":{"type":"Point","coordinates":[16.40740451,48.2042706]},"geometry_name":"SHAPE","properties":{"OBJECTID":2899527,"ANL_NAME":"Prater - Jesuitenwiese","BEZIRK":2,"FLAECHE":"214.030 m²","OEFF_ZEITEN":"0:00-24:00","SPIELEN_IM_PARK":"Ja","WASSER_IM_PARK":"Ja","HUNDE_IM_PARK":"Nein","TELEFON":"01 4000 8042","WEBLINK1":"http://www.wien.gv.at/umwelt/parks/anlagen/index.html","SE_ANNO_CAD_DATA":null}},{"type":"Feature","id":"PARKINFOOGD.2899528","geometry":{"type":"Point","coordinates":[16.36861561,48.22235169]},"geometry_name":"SHAPE","properties":{"OBJECTID":2899528,"ANL_NAME":"Margit-Czernetz-Promenade","BEZIRK":2,"FLAECHE":"6.616 m²","OEFF_ZEITEN":"0:00-24:00","SPIELEN_IM_PARK":"Nein","WASSER_IM_PARK":"Nein","HUNDE_IM_PARK":"Nein","TELEFON":"01 4000 8042","WEBLINK1":"http://www.wien.gv.at/umwelt/parks/anlagen/index.html","SE_ANNO_CAD_DATA":null}},{"type":"Feature","id":"PARKINFOOGD.2899529","geometry":{"type":"Point","coordinates":[16.40068484,48.21200167]},"geometry_name":"SHAPE","properties":{"OBJECTID":2899529,"ANL_NAME":"Prater - Zirkuswiese","BEZIRK":2,"FLAECHE":"30.337 m²","OEFF_ZEITEN":"0:00-24:00","SPIELEN_IM_PARK":"Ja","WASSER_IM_PARK":"Nein","HUNDE_IM_PARK":"Nein","TELEFON":"01 4000 8042","WEBLINK1":"http://www.wien.gv.at/umwelt/parks/anlagen/index.html","SE_ANNO_CAD_DATA":null}},{"type":"Feature","id":"PARKINFOOGD.2899530","geometry":{"type":"Point","coordinates":[16.43977026,48.20017443]},"geometry_name":"SHAPE","properties":{"OBJECTID":2899530,"ANL_NAME":"Wehlistraße/Ostbahn","BEZIRK":2,"FLAECHE":"4.447 m²","OEFF_ZEITEN":"0:00-24:00","SPIELEN_IM_PARK":"Nein","WASSER_IM_PARK":"Nein","HUNDE_IM_PARK":"Ja","TELEFON":"01 4000 8042","WEBLINK1":"http://www.wien.gv.at/umwelt/parks/anlagen/index.html","SE_ANNO_CAD_DATA":null}},{"type":"Feature","id":"PARKINFOOGD.2899531","geometry":{"type":"Point","coordinates":[16.40689417,48.21196322]},"geometry_name":"SHAPE","properties":{"OBJECTID":2899531,"ANL_NAME":"Prater - Avenue","BEZIRK":2,"FLAECHE":"83.323 m²","OEFF_ZEITEN":"0:00-24:00","SPIELEN_IM_PARK":"Ja","WASSER_IM_PARK":"Nein","HUNDE_IM_PARK":"Nein","TELEFON":"01 4000 8042","WEBLINK1":"http://www.wien.gv.at/umwelt/parks/anlagen/index.html","SE_ANNO_CAD_DATA":null}},{"type":"Feature","id":"PARKINFOOGD.2899532","geometry":{"type":"Point","coordinates":[16.40110028,48.21328051]},"geometry_name":"SHAPE","properties":{"OBJECTID":2899532,"ANL_NAME":"Prater - Meiereiwiese","BEZIRK":2,"FLAECHE":"14.016 m²","OEFF_ZEITEN":"0:00-24:00","SPIELEN_IM_PARK":"Ja","WASSER_IM_PARK":"Ja","HUNDE_IM_PARK":"Nein","TELEFON":"01 4000 8042","WEBLINK1":"http://www.wien.gv.at/umwelt/parks/anlagen/index.html","SE_ANNO_CAD_DATA":null}},{"type":"Feature","id":"PARKINFOOGD.2899533","geometry":{"type":"Point","coordinates":[16.46997013,48.15431787]},"geometry_name":"SHAPE","properties":{"OBJECTID":2899533,"ANL_NAME":"PA Flammweg","BEZIRK":11,"FLAECHE":"7.179 m²","OEFF_ZEITEN":"0:00-24:00","SPIELEN_IM_PARK":"Ja","WASSER_IM_PARK":"Ja","HUNDE_IM_PARK":"Ja","TELEFON":"01 4000 8042","WEBLINK1":"http://www.wien.gv.at/umwelt/parks/anlagen/index.html","SE_ANNO_CAD_DATA":null}},{"type":"Feature","id":"PARKINFOOGD.2899534","geometry":{"type":"Point","coordinates":[16.46835819,48.15984438]},"geometry_name":"SHAPE","properties":{"OBJECTID":2899534,"ANL_NAME":"Trpinpark","BEZIRK":11,"FLAECHE":"3.447 m²","OEFF_ZEITEN":"0:00-24:00","SPIELEN_IM_PARK":"Ja","WASSER_IM_PARK":"Ja","HUNDE_IM_PARK":"Nein","TELEFON":"01 4000 8042","WEBLINK1":"http://www.wien.gv.at/umwelt/parks/anlagen/index.html","SE_ANNO_CAD_DATA":null}},{"type":"Feature","id":"PARKINFOOGD.2899535","geometry":{"type":"Point","coordinates":[16.2592042,48.19658684]},"geometry_name":"SHAPE","properties":{"OBJECTID":2899535,"ANL_NAME":"Franz-Schimon-Park","BEZIRK":13,"FLAECHE":"13.363 m²","OEFF_ZEITEN":"0:00-24:00","SPIELEN_IM_PARK":"Ja","WASSER_IM_PARK":"Ja","HUNDE_IM_PARK":"Nein","TELEFON":"01 4000 8042","WEBLINK1":"http://www.wien.gv.at/umwelt/parks/anlagen/index.html","SE_ANNO_CAD_DATA":null}},{"type":"Feature","id":"PARKINFOOGD.2899536","geometry":{"type":"Point","coordinates":[16.26565853,48.18779431]},"geometry_name":"SHAPE","properties":{"OBJECTID":2899536,"ANL_NAME":"PA Erzbischofgasse","BEZIRK":13,"FLAECHE":"491 m²","OEFF_ZEITEN":"0:00-24:00","SPIELEN_IM_PARK":"Nein","WASSER_IM_PARK":"Nein","HUNDE_IM_PARK":"Nein","TELEFON":"01 4000 8042","WEBLINK1":"http://www.wien.gv.at/umwelt/parks/anlagen/index.html","SE_ANNO_CAD_DATA":null}},{"type":"Feature","id":"PARKINFOOGD.2899537","geometry":{"type":"Point","coordinates":[16.30946092,48.18733951]},"geometry_name":"SHAPE","properties":{"OBJECTID":2899537,"ANL_NAME":"Coudenhove-Park","BEZIRK":13,"FLAECHE":"7.730 m²","OEFF_ZEITEN":"0:00-24:00","SPIELEN_IM_PARK":"Nein","WASSER_IM_PARK":"Nein","HUNDE_IM_PARK":"Nein","TELEFON":"01 4000 8042","WEBLINK1":"http://www.wien.gv.at/umwelt/parks/anlagen/index.html","SE_ANNO_CAD_DATA":null}},{"type":"Feature","id":"PARKINFOOGD.2899538","geometry":{"type":"Point","coordinates":[16.28764573,48.17522019]},"geometry_name":"SHAPE","properties":{"OBJECTID":2899538,"ANL_NAME":"Kinderspielplatz Fasangarten","BEZIRK":13,"FLAECHE":"1.984 m²","OEFF_ZEITEN":"0:00-24:00","SPIELEN_IM_PARK":"Nein","WASSER_IM_PARK":"Nein","HUNDE_IM_PARK":"Nein","TELEFON":"01 4000 8042","WEBLINK1":"http://www.wien.gv.at/umwelt/parks/anlagen/index.html","SE_ANNO_CAD_DATA":null}},{"type":"Feature","id":"PARKINFOOGD.2899539","geometry":{"type":"Point","coordinates":[16.3266492,48.15710217]},"geometry_name":"SHAPE","properties":{"OBJECTID":2899539,"ANL_NAME":"PA Lichtensterngasse","BEZIRK":12,"FLAECHE":"11.490 m²","OEFF_ZEITEN":"0:00-24:00","SPIELEN_IM_PARK":"Nein","WASSER_IM_PARK":"Nein","HUNDE_IM_PARK":"Nein","TELEFON":"01 4000 8042","WEBLINK1":"http://www.wien.gv.at/umwelt/parks/anlagen/index.html","SE_ANNO_CAD_DATA":null}},{"type":"Feature","id":"PARKINFOOGD.2899540","geometry":{"type":"Point","coordinates":[16.33505793,48.178843]},"geometry_name":"SHAPE","properties":{"OBJECTID":2899540,"ANL_NAME":"PA Vierthalergasse","BEZIRK":12,"FLAECHE":"2.844 m²","OEFF_ZEITEN":"Okt-März:06:00-21:00, Apr-Sep:06:00-21:30","SPIELEN_IM_PARK":"Ja","WASSER_IM_PARK":"Ja","HUNDE_IM_PARK":"Nein","TELEFON":"01 4000 8042","WEBLINK1":"http://www.wien.gv.at/umwelt/parks/anlagen/index.html","SE_ANNO_CAD_DATA":null}},{"type":"Feature","id":"PARKINFOOGD.2899541","geometry":{"type":"Point","coordinates":[16.32773687,48.18233404]},"geometry_name":"SHAPE","properties":{"OBJECTID":2899541,"ANL_NAME":"Theresienbadpark","BEZIRK":12,"FLAECHE":"5.804 m²","OEFF_ZEITEN":"0:00-24:00","SPIELEN_IM_PARK":"Nein","WASSER_IM_PARK":"Ja","HUNDE_IM_PARK":"Ja","TELEFON":"01 4000 8042","WEBLINK1":"http://www.wien.gv.at/umwelt/parks/anlagen/index.html","SE_ANNO_CAD_DATA":null}},{"type":"Feature","id":"PARKINFOOGD.2899542","geometry":{"type":"Point","coordinates":[16.31669969,48.17858957]},"geometry_name":"SHAPE","properties":{"OBJECTID":2899542,"ANL_NAME":"PA Steinweisweg","BEZIRK":12,"FLAECHE":"5.612 m²","OEFF_ZEITEN":"0:00-24:00","SPIELEN_IM_PARK":"Nein","WASSER_IM_PARK":"Nein","HUNDE_IM_PARK":"Ja","TELEFON":"01 4000 8042","WEBLINK1":"http://www.wien.gv.at/umwelt/parks/anlagen/index.html","SE_ANNO_CAD_DATA":null}},{"type":"Feature","id":"PARKINFOOGD.2899543","geometry":{"type":"Point","coordinates":[16.34028204,48.18552957]},